City,Country,Date (YYYY-MM-DD),Max Temperature,Humidity,Wind Speed,Cloudiness,Latitude,Longitude,UNIX Timestamp
Solnechnyy,RU,2018-10-12,50.67,55,3.27,0,50.72,136.64,1539308565
Jamestown,AU,2018-10-12,72.45,44,5.5,0,-33.21,138.6,1539308566
Bilibino,RU,2018-10-12,22.14,77,3.04,12,68.06,166.44,1539308566
Ribeira Grande,PT,2018-10-12,69.3,100,31.9,92,38.52,-28.7,1539308566
Hilo,US,2018-10-12,80.96,64,6.93,75,19.71,-155.08,1539305580
Busselton,AU,2018-10-12,62.73,100,12.44,92,-33.64,115.35,1539308567
Lobva,RU,2018-10-12,32.81,66,8.19,88,59.19,60.52,1539308567
Jeremie,HT,2018-10-12,77.49,100,1.7,36,18.65,-74.12,1539308567
Wajima,JP,2018-10-12,60.8,63,8.05,75,37.4,136.9,1539306000
Aklavik,CA,2018-10-12,26.6,92,6.93,90,68.22,-135.01,1539306000
Mar del Plata,AR,2018-10-12,48.38,51,13.0,0,-46.43,-67.52,1539308568
Murray Bridge,AU,2018-10-12,65.25,79,13.22,20,-35.12,139.28,1539308568
Sola,NO,2018-10-12,60.8,67,13.87,0,58.89,5.65,1539307200
Albany,US,2018-10-12,68.0,86,6.93,90,42.65,-73.75,1539306840
Paita,PE,2018-10-12,62.37,89,5.06,0,-5.09,-81.11,1539308569
Rikitea,PF,2018-10-12,70.92,100,13.22,92,-23.12,-134.97,1539308569
Vestmannaeyjar,IS,2018-10-12,46.35,91,22.84,56,63.44,-20.27,1539308569
Mataura,NZ,2018-10-12,43.7,67,19.04,92,-46.19,168.86,1539308569
Tuktoyaktuk,CA,2018-10-12,23.0,92,11.41,90,69.44,-133.03,1539306000
Richards Bay,ZA,2018-10-12,68.58,86,14.56,80,-28.77,32.06,1539308570
Hobart,AU,2018-10-12,57.2,58,6.93,75,-42.88,147.33,1539306000
Lagoa,PT,2018-10-12,69.8,88,4.7,75,37.14,-8.45,1539306000
Khatanga,RU,2018-10-12,24.35,84,14.56,0,71.98,102.47,1539308571
Vanimo,PG,2018-10-12,83.88,100,11.65,36,-2.67,141.3,1539308571
Puerto Ayora,EC,2018-10-12,73.4,73,16.11,20,-0.74,-90.35,1539306000
Narsaq,GL,2018-10-12,28.4,46,4.7,20,60.91,-46.05,1539305400
Beihai,CN,2018-10-12,60.8,44,6.71,0,38.95,121.19,1539306000
Chernyy Yar,RU,2018-10-12,33.8,91,2.24,40,64.44,40.96,1539306000
Fruitvale,CA,2018-10-12,51.8,50,2.24,20,49.12,-117.55,1539306000
Faanui,PF,2018-10-12,79.83,100,15.35,36,-16.48,-151.75,1539308572
Charters Towers,AU,2018-10-12,84.38,60,9.53,48,-20.07,146.27,1539308573
Kavieng,PG,2018-10-12,86.04,99,9.31,68,-2.57,150.8,1539308573
Cravo Norte,CO,2018-10-12,74.16,96,5.28,88,6.3,-70.2,1539308573
Rio Gallegos,AR,2018-10-12,44.6,56,11.41,75,-51.62,-69.22,1539306000
Ouadda,CF,2018-10-12,67.23,97,7.74,92,8.07,22.4,1539308574
Kahului,US,2018-10-12,87.08,59,18.34,40,20.89,-156.47,1539306840
Uyuni,BO,2018-10-12,38.97,14,6.73,8,-20.46,-66.82,1539308308
Alofi,NU,2018-10-12,84.2,66,9.17,75,-19.06,-169.92,1539306000
Mankapur,IN,2018-10-12,76.46,80,4.61,0,28.32,79.86,1539308575
Kapaa,US,2018-10-12,84.92,69,11.41,75,22.08,-159.32,1539305760
Saint-Philippe,CA,2018-10-12,51.08,93,5.82,90,45.36,-73.48,1539306900
Cherskiy,RU,2018-10-12,26.64,96,2.04,48,68.75,161.3,1539308575
Montepuez,MZ,2018-10-12,62.33,94,2.82,0,-13.13,39.0,1539308576
Ushuaia,AR,2018-10-12,48.2,45,5.82,75,-54.81,-68.31,1539306000
Vaini,IN,2018-10-12,79.88,58,2.71,0,15.34,74.49,1539308576
Batagay-Alyta,RU,2018-10-12,21.83,90,3.71,88,67.8,130.41,1539308576
Hermanus,ZA,2018-10-12,51.98,90,6.29,44,-34.42,19.24,1539308577
Qaqortoq,GL,2018-10-12,28.4,46,4.7,20,60.72,-46.03,1539305400
Port Hawkesbury,CA,2018-10-12,39.2,93,13.87,90,45.62,-61.36,1539306180
Punta Arenas,CL,2018-10-12,44.6,70,21.92,0,-53.16,-70.91,1539306000
Puerto Baquerizo Moreno,EC,2018-10-12,71.6,73,9.17,20,-0.9,-89.6,1539306000
Barrow,AR,2018-10-12,51.26,47,6.85,92,-38.31,-60.23,1539308578
Georgetown,GY,2018-10-12,77.0,94,6.93,0,6.8,-58.16,1539306000
Port Alfred,ZA,2018-10-12,62.28,100,12.1,92,-33.59,26.89,1539308578
Hualmay,PE,2018-10-12,59.31,99,5.84,88,-11.1,-77.61,1539308579
Ixtapa,MX,2018-10-12,82.4,78,3.36,75,20.71,-105.21,1539305040
Cape Town,ZA,2018-10-12,57.2,76,20.8,20,-33.93,18.42,1539306000
Huntsville,US,2018-10-12,60.98,71,10.29,1,34.73,-86.59,1539305880
Alnashi,RU,2018-10-12,33.75,77,11.43,32,56.18,52.48,1539308579
Port Elizabeth,US,2018-10-12,77.0,100,3.36,90,39.31,-74.98,1539307440
Los Llanos de Aridane,ES,2018-10-12,71.6,68,5.82,0,28.66,-17.92,1539307800
Thompson,CA,2018-10-12,24.8,58,4.94,5,55.74,-97.86,1539306000
Alpena,US,2018-10-12,43.7,76,8.05,90,45.06,-83.43,1539306900
Namibe,AO,2018-10-12,68.18,100,7.74,68,-15.19,12.15,1539308581
Carpina,BR,2018-10-12,78.8,74,11.41,40,-7.85,-35.25,1539306000
Kaduqli,SD,2018-10-12,68.85,93,2.71,92,11.01,29.72,1539308582
Carnarvon,ZA,2018-10-12,56.48,43,8.75,92,-30.97,22.13,1539308582
Qaanaaq,GL,2018-10-12,22.5,100,10.42,64,77.48,-69.36,1539308583
Berlevag,NO,2018-10-12,39.78,100,6.96,64,70.86,29.09,1539308583
Beira,ES,2018-10-12,64.4,68,11.41,68,43.2,-8.36,1539307800
Yenagoa,NG,2018-10-12,74.07,96,4.83,88,4.92,6.26,1539308583
Poum,MK,2018-10-12,36.18,87,2.59,0,41.28,20.71,1539308583
Amapa,HN,2018-10-12,80.6,83,3.36,20,15.09,-87.97,1539306000
Bredasdorp,ZA,2018-10-12,57.2,76,6.93,92,-34.53,20.04,1539306000
Ancud,CL,2018-10-12,39.96,84,2.71,24,-41.87,-73.83,1539308584
Glubczyce,PL,2018-10-12,44.6,93,5.82,0,50.2,17.83,1539306000
Padang,ID,2018-10-12,78.66,100,11.54,80,-0.92,100.36,1539308585
Nara,JP,2018-10-12,66.2,48,10.29,75,34.68,135.8,1539306000
Fuling,CN,2018-10-12,65.88,70,4.5,68,29.71,107.39,1539308585
Adrar,DZ,2018-10-12,75.2,44,6.93,0,27.87,-0.29,1539306000
San Cristobal,EC,2018-10-12,53.6,71,12.75,40,-0.39,-78.55,1539306000
Clyde River,CA,2018-10-12,19.4,79,5.82,75,70.47,-68.59,1539306000
Lorengau,PG,2018-10-12,86.67,92,10.54,32,-2.02,147.27,1539308586
Kearney,US,2018-10-12,46.94,72,3.36,90,40.7,-99.08,1539306900
Talara,PE,2018-10-12,62.37,89,5.06,0,-4.58,-81.27,1539308300
Tura,IN,2018-10-12,70.43,98,5.73,92,25.52,90.21,1539308586
Half Moon Bay,US,2018-10-12,73.04,55,11.41,5,37.46,-122.43,1539305760
Kaitangata,NZ,2018-10-12,43.38,68,21.83,92,-46.28,169.85,1539308587
Manicore,BR,2018-10-12,80.06,84,2.37,8,-5.81,-61.3,1539308587
Carutapera,BR,2018-10-12,80.28,83,10.87,68,-1.2,-46.02,1539308587
New Norfolk,AU,2018-10-12,57.2,58,6.93,75,-42.78,147.06,1539306000
Colonia,RO,2018-10-12,41.0,93,1.12,0,46.6,23.97,1539306000
Zhigansk,RU,2018-10-12,31.1,88,3.27,80,66.77,123.37,1539308588
Bethel,US,2018-10-12,48.02,70,14.99,90,60.79,-161.76,1539305580
Guasdualito,VE,2018-10-12,75.2,100,3.83,75,7.24,-70.73,1539306000
Bluff,AU,2018-10-12,79.11,59,10.42,92,-23.58,149.07,1539308589
Torbay,CA,2018-10-12,35.6,64,10.29,90,47.66,-52.73,1539306000
Bodden Town,KY,2018-10-12,82.4,83,4.7,20,19.28,-81.25,1539306000
Atuona,PF,2018-10-12,79.92,100,18.03,76,-9.8,-139.03,1539308590
San Patricio,PY,2018-10-12,71.51,96,3.71,80,-26.98,-56.83,1539308590
Bara,NG,2018-10-12,79.88,56,7.96,68,10.41,10.6,1539308590
Butaritari,KI,2018-10-12,83.43,100,7.74,44,3.07,172.79,1539308591
Shaoyang,CN,2018-10-12,64.31,69,7.18,0,27.23,111.45,1539308591
Port Hedland,AU,2018-10-12,89.6,31,9.17,0,-20.31,118.58,1539306000
Longyearbyen,NO,2018-10-12,30.2,86,13.87,75,78.22,15.63,1539305400
Sayyan,YE,2018-10-12,39.96,63,3.38,0,15.17,44.32,1539308592
Najran,SA,2018-10-12,68.0,24,2.04,0,17.54,44.22,1539306000
Gallup,US,2018-10-12,53.96,56,6.93,20,35.53,-108.74,1539305580
Viet Tri,VN,2018-10-12,75.2,60,8.05,0,21.3,105.43,1539307800
Majene,ID,2018-10-12,84.38,95,6.17,0,-3.54,118.97,1539308593
Zhangye,CN,2018-10-12,53.1,56,4.16,0,38.94,100.46,1539308593
Lebu,ET,2018-10-12,39.78,79,3.6,0,8.96,38.73,1539308593
Constitucion,MX,2018-10-12,71.6,18,10.29,75,23.99,-104.67,1539304980
Omboue,GA,2018-10-12,77.49,100,8.08,88,-1.57,9.26,1539308593
Castro,CL,2018-10-12,35.55,100,2.93,20,-42.48,-73.76,1539308594
Komsomolskiy,RU,2018-10-12,31.77,96,17.25,92,67.55,63.78,1539308594
Saint George,GR,2018-10-12,62.6,63,5.82,20,39.45,22.34,1539307200
Yumen,CN,2018-10-12,45.72,47,5.39,0,40.29,97.04,1539308595
Avarua,CK,2018-10-12,77.0,69,16.11,75,-21.21,-159.78,1539306000
Airai,TL,2018-10-12,88.25,32,1.7,0,-8.93,125.41,1539308595
Yar-Sale,RU,2018-10-12,32.31,100,16.91,88,66.83,70.83,1539308595
Saint-Joseph,FR,2018-10-12,64.4,93,5.82,90,43.56,6.97,1539307800
Sarkand,KZ,2018-10-12,52.29,45,8.08,0,45.41,79.91,1539308596
Monroe,US,2018-10-12,50.0,67,14.99,90,41.91,-83.4,1539307080
Ahipara,NZ,2018-10-12,59.0,84,24.07,80,-35.17,173.16,1539308597
Hamilton,BM,2018-10-12,75.2,64,5.82,20,32.3,-64.78,1539305700
Cabo San Lucas,MX,2018-10-12,78.8,73,8.05,20,22.89,-109.91,1539305100
Raudeberg,NO,2018-10-12,60.8,55,16.11,48,61.99,5.14,1539307200
Shimoda,JP,2018-10-12,71.6,78,8.05,75,34.7,138.93,1539306000
Casper,US,2018-10-12,44.96,60,5.82,90,42.87,-106.31,1539305580
Yellowknife,CA,2018-10-12,30.2,86,5.82,75,62.45,-114.38,1539306000
Esperance,TT,2018-10-12,80.6,83,3.36,20,10.24,-61.45,1539306000
Dogondoutchi,NE,2018-10-12,74.16,77,3.6,8,13.64,4.03,1539308599
East London,ZA,2018-10-12,65.34,100,24.74,24,-33.02,27.91,1539308599
Morehead,US,2018-10-12,55.94,77,5.82,90,38.18,-83.43,1539305580
Macamic,CA,2018-10-12,42.8,81,13.87,40,48.75,-79.0,1539306000
Xichang,CN,2018-10-12,47.25,100,1.81,92,27.88,102.25,1539308600
Zhanaozen,KZ,2018-10-12,43.25,78,7.4,0,43.35,52.85,1539308600
Salekhard,RU,2018-10-12,27.09,83,14.0,44,66.54,66.62,1539308600
Saskylakh,RU,2018-10-12,26.82,96,4.61,64,71.97,114.09,1539308600
Thanh Hoa,VN,2018-10-12,82.89,91,4.61,12,10.21,106.33,1539308601
Egvekinot,RU,2018-10-12,33.21,77,11.65,88,66.32,-179.17,1539308601
Teeli,RU,2018-10-12,33.84,65,2.26,0,51.01,90.2,1539308601
Chokurdakh,RU,2018-10-12,23.18,93,3.71,80,70.62,147.9,1539308601
Moerai,PF,2018-10-12,71.51,100,17.25,92,-22.43,-151.33,1539308602
Koslan,RU,2018-10-12,34.88,83,10.2,88,63.46,48.9,1539308602
Arraial do Cabo,BR,2018-10-12,73.17,98,4.5,92,-22.97,-42.02,1539308502
Fort Nelson,CA,2018-10-12,37.4,69,2.24,75,58.81,-122.69,1539306000
Guerrero Negro,MX,2018-10-12,67.86,92,6.73,92,27.97,-114.04,1539308602
Ponta do Sol,BR,2018-10-12,72.99,64,10.65,24,-20.63,-46.0,1539308603
Sitka,US,2018-10-12,47.66,83,10.65,92,37.17,-99.65,1539308603
Yarada,IN,2018-10-12,84.06,100,18.25,24,17.65,83.27,1539308603
Kodiak,US,2018-10-12,44.96,76,2.93,1,39.95,-94.76,1539305580
Belmonte,PT,2018-10-12,50.63,94,3.94,92,40.36,-7.35,1539308603
Luang Prabang,LA,2018-10-12,73.4,83,2.24,75,19.89,102.14,1539306000
Mount Gambier,AU,2018-10-12,68.81,66,6.73,0,-37.83,140.78,1539308464
Kuito,AO,2018-10-12,50.63,58,4.5,0,-12.38,16.94,1539308604
Vila Franca do Campo,PT,2018-10-12,71.6,88,25.28,75,37.72,-25.43,1539306000
Chunskiy,RU,2018-10-12,39.96,62,3.49,8,56.08,99.63,1539308605
Sao Filipe,CV,2018-10-12,79.7,95,10.31,0,14.9,-24.5,1539308605
Lompoc,US,2018-10-12,64.94,72,8.05,40,34.64,-120.46,1539305760
Nanortalik,GL,2018-10-12,33.98,95,28.88,20,60.14,-45.24,1539308605
Kovdor,RU,2018-10-12,32.67,87,2.37,80,67.56,30.47,1539308606
Gat,SN,2018-10-12,76.95,85,6.4,0,14.69,-16.54,1539308606
Broken Hill,AU,2018-10-12,71.91,59,9.53,48,-31.97,141.45,1539308606
Colquechaca,BO,2018-10-12,38.7,82,1.92,20,-18.7,-66.0,1539308606
Uhlove,UA,2018-10-12,53.19,100,12.1,0,44.82,33.6,1539308606
Souillac,FR,2018-10-12,64.4,93,2.24,75,45.6,-0.6,1539307800
Lithgow,AU,2018-10-12,59.0,87,13.87,90,-33.48,150.16,1539306000
Vila Velha,BR,2018-10-12,78.8,78,9.17,0,-3.71,-38.6,1539306000
Tiksi,RU,2018-10-12,29.21,98,3.94,44,71.64,128.87,1539308608
Portland,US,2018-10-11,69.98,37,10.29,40,45.52,-122.67,1539301980
Sobolevo,RU,2018-10-12,32.85,78,2.82,0,54.43,31.9,1539308608
Mahebourg,MU,2018-10-12,71.6,68,12.75,20,-20.41,57.7,1539306000
Zenzeli,RU,2018-10-12,44.33,72,10.54,0,45.92,47.05,1539308608
Kysyl-Syr,RU,2018-10-12,31.5,86,6.73,92,63.9,122.77,1539308609
Lambarene,GA,2018-10-12,73.98,99,1.92,100,-0.7,10.22,1539308609
Port Lincoln,AU,2018-10-12,66.33,78,14.12,0,-34.72,135.86,1539308609
Lavrentiya,RU,2018-10-12,42.93,100,19.15,88,65.58,-170.99,1539308609
Puerto Colombia,CO,2018-10-12,77.0,100,2.24,75,10.99,-74.96,1539306000
Sistranda,NO,2018-10-12,55.4,66,12.75,0,63.73,8.83,1539305400
Nioro,GM,2018-10-12,78.08,80,6.4,0,13.79,-15.05,1539308610
Buala,SB,2018-10-12,84.78,88,5.73,68,-8.15,159.59,1539308610
Iqaluit,CA,2018-10-12,15.8,85,6.93,20,63.75,-68.52,1539306000
Tshane,BW,2018-10-12,68.31,23,3.15,100,-24.02,21.87,1539308611
Chulman,RU,2018-10-12,37.17,69,3.38,92,56.84,124.9,1539308611
Provideniya,RU,2018-10-12,42.8,87,17.9,75,64.42,-173.23,1539306000
Sur,OM,2018-10-12,77.9,100,8.41,0,22.57,59.53,1539308612
Merauke,ID,2018-10-12,88.47,65,8.08,48,-8.49,140.4,1539308612
Martapura,ID,2018-10-12,87.03,78,3.27,8,-3.41,114.85,1539308612
Klaksvik,FO,2018-10-12,48.2,100,10.29,32,62.23,-6.59,1539307200
Honiara,SB,2018-10-12,89.6,70,13.87,20,-9.43,159.96,1539306000
Lithakia,GR,2018-10-12,62.6,82,2.24,75,37.72,20.83,1539307200
Rosarno,IT,2018-10-12,71.6,83,3.36,75,38.49,15.98,1539305700
Flin Flon,CA,2018-10-12,27.86,100,6.06,0,54.77,-101.88,1539308613
Cefalu,IT,2018-10-12,54.81,100,1.92,36,38.04,14.02,1539308614
Payakumbuh,ID,2018-10-12,79.25,85,1.81,68,-0.23,100.63,1539308614
Gao,ML,2018-10-12,76.28,44,6.85,0,16.28,-0.04,1539308614
Amahai,ID,2018-10-12,79.88,100,6.29,20,-3.31,129.0,1539308614
Hisor,TJ,2018-10-12,41.0,86,2.24,0,38.53,68.55,1539306000
Maldonado,UY,2018-10-12,50.0,71,13.87,90,-34.91,-54.96,1539306000
Vardo,US,2018-10-12,71.96,84,13.87,75,39.62,-77.74,1539306900
Kirensk,RU,2018-10-12,38.61,79,4.5,68,57.78,108.12,1539308615
Bilma,NE,2018-10-12,75.83,26,4.16,48,18.69,12.92,1539308615
Paamiut,GL,2018-10-12,35.19,100,28.77,0,61.99,-49.67,1539308616
Moose Factory,CA,2018-10-12,37.4,93,13.87,90,51.26,-80.61,1539306840
Guiong,PH,2018-10-12,84.2,79,6.93,40,6.42,122.03,1539306000
Nikolskoye,RU,2018-10-12,42.8,100,6.71,90,59.7,30.79,1539306000
Grindavik,IS,2018-10-12,46.4,81,21.92,75,63.84,-22.43,1539306000
Upernavik,GL,2018-10-12,25.11,100,11.99,0,72.79,-56.15,1539308617
Bukachacha,RU,2018-10-12,51.75,47,3.38,0,52.99,116.91,1539308617
Nadvoitsy,RU,2018-10-12,44.01,100,5.06,92,63.89,34.27,1539308617
Harper,US,2018-10-12,69.98,61,3.36,90,30.3,-99.24,1539306900
Dawei,MM,2018-10-12,79.43,87,2.15,8,14.07,98.19,1539308618
Great Yarmouth,GB,2018-10-12,55.4,93,6.93,0,52.61,1.73,1539307200
Dingle,PH,2018-10-12,86.18,71,10.65,24,11.0,122.67,1539308618
Yakeshi,CN,2018-10-12,51.3,53,13.44,0,49.28,120.73,1539308619
Mananjary,MG,2018-10-12,57.56,86,8.75,76,-19.16,46.8,1539308619
La Seyne-sur-Mer,FR,2018-10-12,64.4,93,4.7,90,43.1,5.88,1539307800
Praia da Vitoria,PT,2018-10-12,69.8,88,36.37,40,38.73,-27.07,1539306000
Fairview,US,2018-10-12,71.06,96,5.82,90,40.81,-74.0,1539306900
Kenora,CA,2018-10-12,28.4,86,6.93,90,49.76,-94.48,1539306900
Kaeo,NZ,2018-10-12,60.98,70,23.29,56,-35.1,173.78,1539308621
Chapais,CA,2018-10-12,37.4,100,13.87,90,49.78,-74.86,1539306900
Mahanoro,MG,2018-10-12,66.87,100,3.15,92,-19.9,48.8,1539308621
Tazovskiy,RU,2018-10-12,33.57,98,14.45,92,67.47,78.7,1539308621
Takoradi,GH,2018-10-12,76.55,100,6.62,64,4.89,-1.75,1539308622
Arkansas City,US,2018-10-12,55.4,62,3.36,90,37.06,-97.04,1539306900
Voh,NC,2018-10-12,73.62,100,10.65,0,-20.95,164.69,1539308622
Alice Springs,AU,2018-10-12,78.8,41,10.29,0,-23.7,133.88,1539307800
Pamanukan,ID,2018-10-12,83.21,100,5.06,12,-6.28,107.82,1539308622
Dikson,RU,2018-10-12,32.0,100,20.83,80,73.51,80.55,1539308623
Severo-Kurilsk,RU,2018-10-12,48.78,95,13.78,92,50.68,156.12,1539308623
Nova Granada,BR,2018-10-12,75.2,73,10.29,20,-20.53,-49.32,1539306000
Havoysund,NO,2018-10-12,39.2,86,5.82,0,71.0,24.66,1539305400
Camargo,MX,2018-10-12,62.15,31,4.27,32,27.69,-105.17,1539308624
Inuvik,CA,2018-10-12,26.6,92,6.93,90,68.36,-133.71,1539306000
Ishigaki,JP,2018-10-12,71.6,100,26.4,75,24.34,124.16,1539306000
Astana,KZ,2018-10-12,48.2,49,20.13,0,51.13,71.43,1539306000
Prince Rupert,CA,2018-10-12,51.8,93,20.8,90,54.32,-130.32,1539306060
Bathsheba,BB,2018-10-12,82.4,78,8.05,40,13.22,-59.52,1539306000
Mount Isa,AU,2018-10-12,87.8,20,5.82,44,-20.73,139.49,1539307800
Tasiilaq,GL,2018-10-12,32.0,100,12.75,92,65.61,-37.64,1539305400
Kavaratti,IN,2018-10-12,83.79,99,10.09,80,10.57,72.64,1539308625
Ginda,IN,2018-10-12,51.12,72,2.04,0,30.69,78.49,1539308626
Kindu,CD,2018-10-12,69.98,96,1.92,64,-2.95,25.92,1539308626
Pouebo,NC,2018-10-12,76.41,75,2.59,56,-20.4,164.57,1539308626
Hovd,NO,2018-10-12,57.2,66,12.75,0,63.83,10.7,1539305400
Amberley,NZ,2018-10-12,44.6,75,23.04,92,-43.15,172.73,1539306000
Norman Wells,CA,2018-10-12,30.2,80,3.36,75,65.28,-126.83,1539306000
Manta,RO,2018-10-12,42.21,83,3.6,0,45.1,24.1,1539308627
Placido de Castro,BR,2018-10-12,76.5,94,2.26,0,-10.34,-67.19,1539308628
Belaya Gora,RU,2018-10-12,16.7,100,4.38,64,68.54,146.19,1539308628
Hithadhoo,MV,2018-10-12,84.15,98,4.72,48,-0.6,73.08,1539308628
Hervey Bay,AU,2018-10-12,69.75,100,12.44,92,-25.3,152.85,1539308628
Cross Lanes,GB,2018-10-12,57.2,93,25.28,90,50.05,-5.22,1539305400
Karatu,TZ,2018-10-12,57.78,93,8.19,24,-3.34,35.67,1539308629
Dauphin,CA,2018-10-12,23.0,79,5.82,1,51.15,-100.04,1539306000
Laguna,MX,2018-10-12,80.6,65,3.36,75,27.52,-110.01,1539304920
Shaoguan,CN,2018-10-12,68.18,64,3.38,48,24.81,113.59,1539308630
Bambous Virieux,MU,2018-10-12,71.6,68,12.75,20,-20.34,57.76,1539306000
Kushiro,JP,2018-10-12,55.4,100,3.36,75,43.11,144.15,1539306000
Luis Correia,BR,2018-10-12,78.57,70,19.04,0,-2.88,-41.67,1539308630
Vostok,RU,2018-10-12,44.6,77,3.71,44,46.45,135.83,1539308631
Pervomayskoye,RU,2018-10-12,43.47,59,14.45,0,57.07,86.23,1539308631
Anadyr,RU,2018-10-12,39.2,80,8.95,90,64.73,177.51,1539306000
Graham,US,2018-10-12,71.06,100,4.7,90,36.07,-79.4,1539307500
Riyadh,SA,2018-10-12,73.4,35,2.93,0,24.63,46.72,1539306000
Shu,KZ,2018-10-12,49.59,65,6.62,0,43.6,73.76,1539308632
Kisangani,CD,2018-10-12,71.15,100,2.71,92,0.52,25.21,1539308632
Davidson,US,2018-10-12,71.96,70,8.05,1,35.5,-80.85,1539307500
Khanpur,PK,2018-10-12,71.73,65,5.95,0,28.65,70.66,1539308633
Tuatapere,NZ,2018-10-12,44.01,100,19.15,88,-46.13,167.69,1539308633
Port Macquarie,AU,2018-10-12,62.6,67,9.17,90,-31.43,152.91,1539306000
Ilulissat,GL,2018-10-12,10.4,60,2.24,0,69.22,-51.1,1539305400
Rio Grande,BR,2018-10-12,62.6,67,13.87,90,-32.03,-52.1,1539306000
Gunjur,GM,2018-10-12,82.58,97,9.98,0,13.18,-16.76,1539308634
Bozova,TR,2018-10-12,66.2,45,5.82,0,37.36,38.53,1539305400
San Quintin,PH,2018-10-12,86.0,66,2.24,20,17.54,120.52,1539306000
Asyut,EG,2018-10-12,58.23,87,2.93,0,27.18,31.19,1539308634
Meulaboh,ID,2018-10-12,79.83,100,2.15,64,4.14,96.13,1539308635
Zeya,RU,2018-10-12,44.51,49,2.71,76,53.74,127.27,1539308635
Coihueco,CL,2018-10-12,51.8,81,4.7,0,-36.63,-71.83,1539306000
Gizo,IL,2018-10-12,73.4,69,2.24,40,31.8,34.94,1539305400
Tuy Hoa,VN,2018-10-12,78.8,100,10.2,92,13.08,109.3,1539308636
Ornes,FR,2018-10-12,60.8,77,10.29,0,49.25,5.47,1539307800
Magadan,RU,2018-10-12,42.8,93,2.24,90,59.56,150.8,1539306000
Talnakh,RU,2018-10-12,30.78,90,21.27,88,69.49,88.39,1539308636
Dobryanka,RU,2018-10-12,35.6,80,11.18,75,58.45,56.42,1539306000
Linxia,CN,2018-10-12,49.01,55,2.93,0,35.6,103.21,1539308637
Srednekolymsk,RU,2018-10-12,28.31,84,3.15,88,67.46,153.71,1539308637
Ndjole,GA,2018-10-12,73.76,97,3.27,100,-0.18,10.76,1539308637
Eureka,US,2018-10-12,53.6,96,3.36,90,40.8,-124.16,1539305700
Lastoursville,GA,2018-10-12,74.66,91,2.37,76,-0.81,12.73,1539308638
Ginir,ET,2018-10-12,62.1,83,3.27,100,7.14,40.71,1539308638
Boden,SE,2018-10-12,42.8,100,2.93,90,65.83,21.69,1539307200
Beloha,MG,2018-10-12,66.11,83,7.63,0,-25.17,45.06,1539308638
Carlyle,CA,2018-10-12,30.2,58,5.82,1,49.63,-102.27,1539306000
Tubmanburg,LR,2018-10-12,74.07,98,2.82,88,6.87,-10.82,1539308639
Novobirilyussy,RU,2018-10-12,39.15,63,7.96,8,56.95,90.69,1539308639
Vao,EE,2018-10-12,47.97,97,5.95,8,59.1,26.19,1539308640
Crotone,IT,2018-10-12,70.29,100,2.04,92,39.09,17.12,1539308640
Bequimao,BR,2018-10-12,80.6,78,13.87,0,-2.45,-44.78,1539306000
Las Vegas,US,2018-10-12,73.94,46,5.82,90,36.17,-115.15,1539306900
Verkh-Usugli,RU,2018-10-12,50.81,47,3.6,8,52.7,115.17,1539308641
Broome,GB,2018-10-12,57.02,93,6.93,48,52.47,1.45,1539307200
Bonavista,CA,2018-10-12,38.34,100,11.99,24,48.65,-53.11,1539308641
Mogoytuy,RU,2018-10-12,55.71,49,4.16,8,51.28,114.93,1539308642
Coahuayana,MX,2018-10-12,65.52,91,2.15,8,18.62,-100.35,1539308642
Chuy,UY,2018-10-12,51.8,100,8.3,100,-33.69,-53.46,1539308642
San Juan,AR,2018-10-12,56.75,57,2.59,92,-31.54,-68.53,1539308644
Kinlochleven,GB,2018-10-12,45.05,97,11.21,12,56.71,-4.97,1539308644
Raquira,CO,2018-10-12,53.91,95,0.58,80,5.54,-73.63,1539308644
Navashino,RU,2018-10-12,32.31,93,8.52,0,55.54,42.19,1539308644
Acapulco,MX,2018-10-12,78.8,88,3.36,75,16.86,-99.88,1539305580
Sonoita,US,2018-10-12,75.02,48,8.05,75,31.68,-110.66,1539305880
Urambo,TZ,2018-10-12,70.92,50,4.05,56,-5.07,32.07,1539308645
Avera,US,2018-10-12,78.08,56,9.17,1,33.19,-82.53,1539305700
Dekar,BW,2018-10-12,63.05,36,6.96,0,-21.53,21.93,1539308646
Byron Bay,AU,2018-10-12,68.0,68,10.29,90,-28.65,153.62,1539307800
Borba,PT,2018-10-12,51.98,92,2.93,8,38.81,-7.46,1539308646
Ulaangom,MN,2018-10-12,39.6,64,2.15,0,49.98,92.07,1539308542
Zahir Pir,PK,2018-10-12,71.73,65,5.95,0,28.81,70.52,1539308646
Satipo,PE,2018-10-12,65.79,97,1.7,64,-11.26,-74.64,1539308647
Ambon,FR,2018-10-12,59.0,93,11.41,75,47.55,-2.56,1539307800
Cagdianao,PH,2018-10-12,82.13,96,7.96,76,9.92,125.67,1539308647
Ubrique,ES,2018-10-12,69.8,94,5.82,0,36.68,-5.45,1539307800
Havre-Saint-Pierre,CA,2018-10-12,33.8,69,8.05,90,50.23,-63.6,1539306000
Pisco,PE,2018-10-12,64.4,82,17.22,90,-13.71,-76.2,1539306000
Kjollefjord,NO,2018-10-12,40.5,100,4.83,88,70.95,27.35,1539308648
Behbahan,IR,2018-10-12,77.0,57,6.93,20,30.59,50.24,1539306000
Nantong,CN,2018-10-12,68.85,71,8.63,0,31.98,120.89,1539308649
Camacha,PT,2018-10-12,69.8,94,5.82,20,33.08,-16.33,1539306000
Hay River,CA,2018-10-12,32.0,84,9.17,90,60.82,-115.79,1539306000
Bani,PH,2018-10-12,84.69,85,1.03,0,15.89,120.27,1539308650
Awjilah,LY,2018-10-12,61.7,80,7.85,0,29.14,21.3,1539308650
Naryan-Mar,RU,2018-10-12,36.18,100,28.77,88,67.67,53.09,1539308577
La Sarre,CA,2018-10-12,44.96,98,16.35,92,48.8,-79.2,1539308571
Nueva Loja,EC,2018-10-12,74.07,95,1.48,12,0.08,-76.88,1539308651
Middelburg,ZA,2018-10-12,54.86,78,2.82,48,-25.77,29.46,1539308651
Innisfail,CA,2018-10-12,39.2,87,8.05,90,52.02,-113.95,1539306000
Bajram Curri,AL,2018-10-12,57.2,58,5.82,0,42.36,20.08,1539306000
Baghdad,IQ,2018-10-12,77.0,36,5.82,32,33.3,44.38,1539306000
Kjopsvik,NO,2018-10-12,39.2,100,14.99,0,68.1,16.37,1539307200
Victoria,BN,2018-10-12,86.0,79,2.24,75,5.28,115.24,1539306000
Kununurra,AU,2018-10-12,95.0,28,9.17,0,-15.77,128.74,1539307800
Pio XII,BR,2018-10-12,78.84,81,8.08,0,-3.89,-45.17,1539308652
Fukue,JP,2018-10-12,68.0,60,23.04,75,35.03,136.69,1539306000
Villacarrillo,ES,2018-10-12,50.36,100,3.04,8,38.12,-3.08,1539308653
College,US,2018-10-12,43.52,98,5.82,90,64.86,-147.8,1539305880
Tonekabon,IR,2018-10-12,68.0,93,2.24,40,36.82,50.88,1539306000
Chalon-sur-Saone,FR,2018-10-12,60.8,87,2.24,0,46.78,4.85,1539307800
Deputatskiy,RU,2018-10-12,18.0,90,3.49,44,69.3,139.9,1539308653
Saint-Malo,FR,2018-10-12,59.0,93,17.22,0,48.65,-2.02,1539307800
Enterprise,US,2018-10-12,69.98,73,8.05,1,31.32,-85.86,1539307500
Mata,CU,2018-10-12,75.2,88,3.36,20,22.63,-79.93,1539305520
Taoudenni,ML,2018-10-12,77.18,33,9.86,0,22.68,-3.98,1539308655
Christchurch,NZ,2018-10-12,44.6,75,23.04,76,-43.53,172.64,1539306000
Coihaique,CL,2018-10-12,46.4,52,9.17,0,-45.58,-72.07,1539306000
Sampit,ID,2018-10-12,86.36,85,4.38,20,-2.54,112.95,1539308655
Rabo de Peixe,PT,2018-10-12,71.6,88,25.28,75,37.8,-25.58,1539306000
The Valley,AI,2018-10-12,80.6,83,5.82,20,18.22,-63.06,1539306000
Rochester,US,2018-10-12,37.4,16,18.34,90,44.02,-92.46,1539305700
Lakes Entrance,AU,2018-10-12,62.28,74,9.42,8,-37.88,147.99,1539308656
Gigmoto,PH,2018-10-12,82.58,100,8.41,64,13.78,124.39,1539308656
Tarakan,ID,2018-10-12,85.28,89,1.48,64,3.3,117.63,1539308656
Novopokrovka,RU,2018-10-12,46.58,71,4.38,20,45.85,134.51,1539308657
Sept-Iles,CA,2018-10-12,33.8,69,10.29,90,50.2,-66.38,1539306000
Manggar,ID,2018-10-12,86.58,84,4.5,0,-2.88,108.27,1539308445
Ballina,IE,2018-10-12,54.09,95,35.03,92,54.11,-9.15,1539308658
Noumea,NC,2018-10-12,82.4,54,10.29,0,-22.28,166.46,1539306000
Ewa Beach,US,2018-10-12,84.02,65,9.17,75,21.32,-158.01,1539306300
Cap Malheureux,MU,2018-10-12,71.6,68,12.75,20,-19.98,57.61,1539306000
Quatre Cocos,MU,2018-10-12,71.6,68,12.75,20,-20.21,57.76,1539306000
Taltal,CL,2018-10-12,50.31,98,0.69,36,-25.41,-70.49,1539308659
Eidsvag,NO,2018-10-12,62.6,42,19.46,32,62.78,8.07,1539307200
Saint Anthony,US,2018-10-12,46.94,10,5.17,75,43.97,-111.68,1539305760
Petrykiv,UA,2018-10-12,42.35,85,7.4,0,49.53,25.58,1539308660
Vanavara,RU,2018-10-12,34.47,61,3.94,0,60.35,102.28,1539308660
Pochutla,MX,2018-10-12,78.8,69,2.15,90,15.74,-96.47,1539304800
Baherden,TM,2018-10-12,42.8,76,2.59,0,38.44,57.43,1539308553
Sayhat,SA,2018-10-12,87.8,70,5.82,5,26.49,50.04,1539307800
Kruisfontein,ZA,2018-10-12,59.85,100,12.44,100,-34.0,24.73,1539308661
Antalaha,MG,2018-10-12,72.0,96,12.1,92,-14.9,50.28,1539308661
Wangqing,CN,2018-10-12,51.12,64,5.95,0,43.31,129.76,1539308661
Kabwe,ZM,2018-10-12,64.4,44,8.75,0,-14.44,28.44,1539308662
Haines Junction,CA,2018-10-12,29.3,84,2.15,32,60.75,-137.51,1539308662
Bintulu,MY,2018-10-12,82.4,83,3.36,75,3.17,113.03,1539306000
Mitsamiouli,KM,2018-10-12,76.32,100,10.42,0,-11.38,43.28,1539308662
Hasaki,JP,2018-10-12,68.0,88,5.82,75,35.73,140.83,1539306000
Shahr-e Kord,IR,2018-10-12,44.6,39,2.24,0,32.33,50.85,1539306000
Ures,MX,2018-10-12,74.88,68,11.99,88,30.73,-112.95,1539308663
Chifeng,CN,2018-10-12,57.87,38,3.38,0,42.27,118.96,1539308663
Sinnamary,GF,2018-10-12,81.09,94,13.89,20,5.38,-52.96,1539308663
Palmer,US,2018-10-12,53.06,54,5.82,75,61.6,-149.11,1539305760
Mahibadhoo,MV,2018-10-12,83.03,99,8.63,92,3.78,72.97,1539308664
Rozhyshche,UA,2018-10-12,44.1,86,9.64,0,50.92,25.27,1539308664
Jumla,NP,2018-10-12,38.25,83,1.81,0,29.28,82.18,1539308664
Katherine,AU,2018-10-12,91.4,33,9.17,0,-14.47,132.26,1539306000
Luderitz,NA,2018-10-12,62.6,55,25.28,64,-26.65,15.16,1539306000
Mogadishu,SO,2018-10-12,78.53,100,16.46,92,2.04,45.34,1539308665
Sotnikovo,RU,2018-10-12,37.4,93,4.47,75,51.88,107.48,1539306000
Mataram,ID,2018-10-12,88.43,56,2.93,8,-5.32,105.06,1539308665
Touros,BR,2018-10-12,75.65,93,14.34,88,-5.2,-35.46,1539308666
Milledgeville,US,2018-10-12,73.04,56,11.41,1,33.08,-83.23,1539305760
Samba,IN,2018-10-12,67.46,62,3.94,0,32.56,75.12,1539308666
Esmeraldas,BR,2018-10-12,77.0,53,10.29,0,-19.76,-44.31,1539306000
Nemuro,JP,2018-10-12,57.2,93,6.93,75,43.32,145.57,1539306000
Chake Chake,TZ,2018-10-12,77.04,100,11.65,88,-5.25,39.77,1539308667
Danville,US,2018-10-12,64.4,100,4.7,90,36.59,-79.4,1539307200
Pasni,PK,2018-10-12,81.0,77,11.21,0,25.26,63.48,1539308667
La Huacana,MX,2018-10-12,66.83,73,2.37,0,18.96,-101.8,1539308502
Sharjah,AE,2018-10-12,84.2,30,6.93,0,25.36,55.39,1539306000
Ostrovnoy,RU,2018-10-12,28.26,89,11.43,12,68.05,39.51,1539308489
Sorland,NO,2018-10-12,52.92,94,13.78,12,67.67,12.69,1539308668
Khash,IR,2018-10-12,41.85,37,2.71,0,28.22,61.21,1539308668
Williams Lake,CA,2018-10-12,41.0,65,11.41,75,52.13,-122.14,1539306000
Warrington,GB,2018-10-12,53.6,93,11.41,0,53.39,-2.59,1539307200
Leshukonskoye,RU,2018-10-12,35.64,88,9.19,32,64.9,45.76,1539308669
Immenstadt,DE,2018-10-12,55.4,93,3.36,0,47.56,10.22,1539307200
Veraval,FR,2018-10-12,57.2,93,8.05,20,49.65,0.71,1539307800
Oranjemund,ZA,2018-10-12,59.04,97,24.18,92,-28.55,16.43,1539308670
Latung,ID,2018-10-12,89.78,38,2.82,0,-8.45,120.42,1539308670
Salalah,OM,2018-10-12,84.2,66,16.11,0,17.01,54.1,1539305400
Nouakchott,MR,2018-10-12,83.34,93,18.25,0,18.08,-15.98,1539308671
Camapua,BR,2018-10-12,73.98,91,8.86,12,-19.53,-54.04,1539308671
Husavik,CA,2018-10-12,28.13,98,7.74,44,50.56,-96.99,1539308671
Sorong,ID,2018-10-12,80.46,100,4.27,32,-0.86,131.25,1539308671
Elko,US,2018-10-12,53.06,8,4.7,20,40.83,-115.76,1539305760
Flinders,AU,2018-10-12,60.53,71,6.96,64,-34.58,150.85,1539308672
Toamasina,MG,2018-10-12,75.2,83,11.41,75,-18.17,49.38,1539306000
Cordoba,CO,2018-10-12,53.91,95,0.58,80,5.59,-73.79,1539308672
Chumikan,RU,2018-10-12,48.51,64,8.3,0,54.72,135.31,1539308673
Katsuura,JP,2018-10-12,62.6,55,4.7,75,33.93,134.5,1539306000
Codrington,AU,2018-10-12,61.83,95,6.4,92,-28.95,153.24,1539308673
Kologriv,RU,2018-10-12,31.5,93,6.17,0,58.83,44.31,1539308673
Acworth,US,2018-10-12,66.92,67,4.7,1,34.07,-84.68,1539305760
Dakar,SN,2018-10-12,82.4,78,6.93,0,14.69,-17.45,1539306000
Labe,NG,2018-10-12,73.4,100,5.73,64,7.7,8.47,1539308674
Saldanha,PT,2018-10-12,51.39,95,6.51,24,41.42,-6.55,1539308674
Caucaia,BR,2018-10-12,78.8,78,9.17,0,-3.73,-38.66,1539306000
Hoover,US,2018-10-12,64.94,60,12.75,1,33.38,-86.81,1539305580
Namtsy,RU,2018-10-12,26.91,78,6.96,88,62.72,129.66,1539308675
Lasa,CY,2018-10-12,68.0,72,9.17,64,34.92,32.53,1539307800
Belogorsk,UA,2018-10-12,49.59,100,6.85,0,45.06,34.59,1539308676
Shelburne,CA,2018-10-12,53.6,71,16.11,90,44.08,-80.2,1539306000
Yarmouth,GB,2018-10-12,55.4,87,12.75,80,50.71,-1.5,1539305400
Turukhansk,RU,2018-10-12,33.48,91,23.4,92,65.8,87.96,1539308676
Elizabeth City,US,2018-10-12,78.08,87,16.11,90,36.3,-76.22,1539307800
Antofagasta,CL,2018-10-12,59.0,87,10.29,90,-23.65,-70.4,1539306000
Pringsewu,ID,2018-10-12,88.43,56,2.93,8,-5.36,104.98,1539308677
Zlobin,HR,2018-10-12,53.6,87,7.4,0,45.29,14.65,1539307800
Sao Miguel do Araguaia,BR,2018-10-12,75.42,87,2.59,0,-13.28,-50.16,1539308678
Kassala,SD,2018-10-12,67.14,67,2.71,0,15.45,36.38,1539308678
Jalingo,NG,2018-10-12,79.88,56,7.96,68,10.3,10.93,1539308678
Saint-Augustin,FR,2018-10-12,60.8,93,5.82,0,44.83,-0.61,1539307800
Guozhen,CN,2018-10-12,68.4,62,5.73,8,29.3,113.14,1539308679
Nuuk,GL,2018-10-12,24.8,73,13.87,5,64.17,-51.74,1539305400
Tautira,PF,2018-10-12,86.0,62,5.82,20,-17.73,-149.15,1539306000
Peno,RU,2018-10-12,36.05,93,3.04,56,56.92,32.74,1539308679
Borgo San Dalmazzo,IT,2018-10-12,62.6,72,11.41,40,44.33,7.49,1539305700
Hambantota,LK,2018-10-12,77.63,100,4.94,80,6.12,81.12,1539308680
Vallenar,CL,2018-10-12,51.21,89,1.48,92,-28.58,-70.76,1539308680
Tainan,TW,2018-10-12,78.8,74,2.24,75,22.99,120.21,1539306000
Rudnichnyy,RU,2018-10-12,31.1,62,8.52,44,59.7,60.29,1539308680
Marovoay,MG,2018-10-12,75.2,64,6.93,20,-16.11,46.64,1539306000
Kropotkin,RU,2018-10-12,47.66,80,10.54,0,45.43,40.58,1539308681
Seoul,KR,2018-10-12,57.2,30,9.17,0,37.57,126.98,1539307800
Lucea,JM,2018-10-12,80.6,78,3.36,20,18.44,-78.17,1539306000
San Pedro,AR,2018-10-12,51.35,100,10.2,100,-33.68,-59.66,1539308683
Popondetta,PG,2018-10-12,75.24,88,2.37,76,-8.77,148.24,1539308683
Abha,SA,2018-10-12,62.6,33,2.71,0,18.22,42.5,1539306000
Sapa,PH,2018-10-12,87.8,66,3.36,40,14.32,120.76,1539306000
Saryozek,KZ,2018-10-12,45.09,64,2.82,0,44.36,77.98,1539308684
Zaysan,KZ,2018-10-12,44.6,74,3.49,0,47.47,84.87,1539308684
Cidreira,BR,2018-10-12,63.95,76,17.58,68,-30.17,-50.22,1539308684
Tessalit,ML,2018-10-12,68.76,34,9.64,0,20.2,1.01,1539308685
Sidrolandia,BR,2018-10-12,75.2,83,4.7,40,-20.93,-54.96,1539306000
Fare,PF,2018-10-12,77.94,100,18.14,92,-16.7,-151.02,1539308685
Khandyga,RU,2018-10-12,26.06,74,3.38,76,62.65,135.58,1539308686
Marystown,CA,2018-10-12,34.65,100,6.51,64,47.17,-55.16,1539308686
Saint-Pierre,FR,2018-10-12,57.2,93,10.29,0,48.95,4.24,1539307800
Manoel Urbano,BR,2018-10-12,76.05,96,2.04,12,-8.84,-69.26,1539308687
Nelson Bay,AU,2018-10-12,62.6,67,17.22,75,-32.72,152.14,1539306000
Port Hardy,CA,2018-10-12,50.0,87,2.24,75,50.7,-127.42,1539306000
Kudat,MY,2018-10-12,86.0,79,4.7,75,6.89,116.84,1539306000
Palaikastron,GR,2018-10-12,71.46,100,23.17,0,35.2,26.25,1539308687
Fomboni,KM,2018-10-12,78.48,100,8.41,24,-12.28,43.74,1539308688
Helena,US,2018-10-12,44.96,11,4.7,1,46.59,-112.04,1539305580
Sundumbili,ZA,2018-10-12,67.01,78,11.99,8,-29.13,31.4,1539308688
Coquimbo,CL,2018-10-12,51.8,81,5.82,0,-29.95,-71.34,1539306000
Road Town,VG,2018-10-12,80.06,81,5.82,40,18.42,-64.62,1539305580
Mezhdurechensk,RU,2018-10-12,38.88,75,3.15,0,53.69,88.07,1539308689
Evensk,RU,2018-10-12,41.18,100,4.72,76,61.92,159.24,1539308689
Along,IN,2018-10-12,65.7,81,1.81,92,28.17,94.8,1539308689
Nishihara,JP,2018-10-12,69.8,68,10.29,75,35.74,139.53,1539306000
West Wendover,US,2018-10-12,51.98,56,4.7,1,40.74,-114.07,1539305760
Bukene,TZ,2018-10-12,65.43,60,6.17,24,-4.23,32.89,1539308690
Sarh,TD,2018-10-12,73.4,88,9.17,20,9.14,18.39,1539306000
Outlook,CA,2018-10-12,26.46,82,8.63,0,51.48,-107.04,1539308691
Malvar,PH,2018-10-12,87.8,66,3.36,40,14.05,121.15,1539306000
Sinegorye,RU,2018-10-12,18.95,86,2.71,80,62.09,150.53,1539308692
Kimbe,PG,2018-10-12,84.42,96,2.93,20,-5.56,150.15,1539308692
Basco,US,2018-10-12,42.98,80,4.7,1,40.33,-91.2,1539306900
Novobiryusinskiy,RU,2018-10-12,37.62,61,3.49,36,56.96,97.71,1539308692
Terrace Bay,CA,2018-10-12,37.76,100,18.81,88,48.78,-87.1,1539308692
Kingman,US,2018-10-12,82.04,74,14.99,75,35.19,-114.05,1539305760
Camacari,BR,2018-10-12,80.6,69,11.41,20,-12.7,-38.32,1539306000
Katangli,RU,2018-10-12,48.42,90,5.06,0,51.71,143.23,1539308693
Marmande,FR,2018-10-12,64.4,93,3.36,0,44.5,0.16,1539307800
Kamenka,RU,2018-10-12,32.76,93,7.18,0,53.19,44.05,1539308694
Marsa Matruh,EG,2018-10-12,57.2,83,4.27,0,31.35,27.25,1539308694
Auki,NG,2018-10-12,72.27,80,3.27,64,12.18,6.51,1539308694
Burnie,AU,2018-10-12,54.18,100,14.12,76,-41.05,145.91,1539308695
Kinchil,MX,2018-10-12,82.4,78,4.7,90,20.92,-89.95,1539305400
Puerto Escondido,MX,2018-10-12,78.8,69,1.36,90,15.86,-97.07,1539304800
Mbandaka,CD,2018-10-12,69.57,100,2.59,92,0.05,18.26,1539308695
Conceicao do Rio Verde,BR,2018-10-12,65.48,92,8.19,64,-21.88,-45.09,1539308696
Uruzgan,AF,2018-10-12,26.96,53,1.48,0,32.93,66.63,1539308696
Nicoya,CR,2018-10-12,77.0,88,4.7,75,10.15,-85.45,1539306000
Nome,US,2018-10-12,71.96,58,3.36,75,30.04,-94.42,1539306900
Cayenne,GF,2018-10-12,78.8,94,9.17,0,4.94,-52.33,1539306000
Sao Luis,BR,2018-10-12,75.69,64,2.15,12,4.43,-61.14,1539308629
Araria,IN,2018-10-12,75.2,74,9.42,92,26.13,87.47,1539308697
Beohari,IN,2018-10-12,73.44,89,7.07,48,24.05,81.38,1539308697
Ihosy,MG,2018-10-12,58.41,92,3.27,32,-22.4,46.13,1539308697
Varkkallai,IN,2018-10-12,78.8,88,4.7,40,8.73,76.71,1539307800
Lazaro Cardenas,MX,2018-10-12,73.4,28,4.7,75,28.39,-105.62,1539305280
Pevek,RU,2018-10-12,33.8,100,5.95,0,69.7,170.27,1539308698
Faya,SA,2018-10-12,62.6,33,4.38,0,18.39,42.45,1539306000
Pinawa,CA,2018-10-12,30.51,97,8.19,92,50.15,-95.88,1539308699
Narasapur,IN,2018-10-12,84.38,98,9.98,0,16.45,81.67,1539308699
Lloydminster,CA,2018-10-12,32.0,92,5.82,90,53.28,-110.01,1539306000
Doha,QA,2018-10-12,87.8,70,5.82,0,25.29,51.53,1539306000
Nsanje,MZ,2018-10-12,66.96,89,2.59,0,-16.92,35.26,1539308699
Suifenhe,CN,2018-10-12,51.48,70,7.74,12,44.39,131.16,1539308700
Namatanai,PG,2018-10-12,84.87,98,7.74,24,-3.66,152.44,1539308700
Myitkyina,MM,2018-10-12,70.25,100,2.37,92,25.38,97.4,1539308700
Natal,BR,2018-10-12,78.8,69,14.99,20,-5.81,-35.21,1539306000
Katima Mulilo,NA,2018-10-12,55.26,52,2.93,0,-17.5,24.28,1539308701
Gamba,CN,2018-10-12,26.91,73,2.82,80,28.28,88.52,1539308701
Karlskrona,SE,2018-10-12,53.6,93,5.82,0,56.16,15.59,1539307200
Leon,US,2018-10-12,41.0,85,5.17,1,40.74,-93.75,1539306900
Sananduva,BR,2018-10-12,58.41,80,20.04,36,-27.95,-51.81,1539308701
Comodoro Rivadavia,AR,2018-10-12,53.6,40,4.7,0,-45.87,-67.48,1539306000
Shihezi,CN,2018-10-12,54.23,77,4.61,0,44.3,86.03,1539308702
Gushikawa,JP,2018-10-12,68.0,93,12.75,90,26.35,127.87,1539307440
Omsukchan,RU,2018-10-12,29.16,79,3.6,48,62.53,155.8,1539308703
