City,Country,Date,Max Temperature,Humidity,Wind Speed,Cloudiness,Latitude,Longitude,UNIX Timestamp
Karratha,AU,2018-10-11,64.09,62,4.94,0,-20.74,116.85,1539291667
Muroto,JP,2018-10-11,57.16,100,12.77,92,33.37,134.14,1539291826
Butaritari,KI,2018-10-11,83.35,100,9.08,56,3.07,172.79,1539291793
Rikitea,PF,2018-10-11,70.66,100,10.98,88,-23.12,-134.97,1539291827
Husavik,CA,2018-10-11,33.94,100,12.21,68,50.56,-96.99,1539291827
Puerto Ayora,EC,2018-10-11,78.8,61,8.05,20,-0.74,-90.35,1539288000
North Bend,US,2018-10-11,69.08,41,16.11,0,43.41,-124.22,1539291360
Quatre Cocos,MU,2018-10-11,71.6,73,12.75,40,-20.21,57.76,1539288000
New Norfolk,AU,2018-10-11,48.2,81,5.82,75,-42.78,147.06,1539289800
Busselton,AU,2018-10-11,60.67,100,12.44,80,-33.64,115.35,1539291671
Abay,KZ,2018-10-11,42.8,56,13.42,0,49.63,72.87,1539289800
Carnarvon,ZA,2018-10-11,60.76,29,10.76,36,-30.97,22.13,1539291683
Hermanus,ZA,2018-10-11,54.73,89,4.05,92,-34.42,19.24,1539291829
Geraldton,CA,2018-10-11,30.2,100,10.29,90,49.72,-86.95,1539289260
Mar del Plata,AR,2018-10-11,62.29,33,11.65,0,-46.43,-67.52,1539291576
Barrow,AR,2018-10-11,59.86,35,7.4,56,-38.31,-60.23,1539291830
Tazovskiy,RU,2018-10-11,33.49,96,16.13,88,67.47,78.7,1539291830
Ribeira Grande,PT,2018-10-11,71.6,88,34.45,40,38.52,-28.7,1539288000
Touros,BR,2018-10-11,79.39,77,16.13,12,-5.2,-35.46,1539291831
Vaini,IN,2018-10-11,69.67,81,4.16,8,15.34,74.49,1539291831
Igarka,RU,2018-10-11,32.68,87,22.5,92,67.47,86.57,1539291831
Iqaluit,CA,2018-10-11,26.6,73,18.34,40,63.75,-68.52,1539288000
Pevek,RU,2018-10-11,28.99,100,6.51,0,69.7,170.27,1539291832
Atuona,PF,2018-10-11,80.38,100,17.58,56,-9.8,-139.03,1539291832
Boca do Acre,BR,2018-10-11,86.68,71,2.93,12,-8.76,-67.39,1539291763
Knysna,ZA,2018-10-11,57.2,93,8.05,88,-34.04,23.05,1539288000
Maua,KE,2018-10-11,64.99,72,5.5,56,0.23,37.94,1539291833
Pandrup,DK,2018-10-11,56.26,82,13.11,0,57.21,9.68,1539291700
Vila Velha,BR,2018-10-11,80.6,69,9.17,0,-3.71,-38.6,1539291600
Mandalgovi,MN,2018-10-11,26.65,77,6.17,0,45.76,106.27,1539291834
Huangnihe,CN,2018-10-11,28.81,81,4.05,0,43.56,128.02,1539291701
Mikhaylovka,RU,2018-10-11,39.25,97,3.94,92,52.96,103.29,1539291701
Sidrolandia,BR,2018-10-11,75.2,83,10.29,75,-20.93,-54.96,1539288000
Malpur,IN,2018-10-11,74.44,68,2.71,12,23.32,73.56,1539291702
Ushuaia,AR,2018-10-11,50.0,43,13.87,40,-54.81,-68.31,1539288000
Port Alfred,ZA,2018-10-11,65.53,90,15.79,44,-33.59,26.89,1539291702
Assiniboia,CA,2018-10-11,39.52,82,5.61,12,49.63,-105.99,1539291836
Kodiak,US,2018-10-11,53.06,50,4.7,1,39.95,-94.76,1539291180
Carson City,US,2018-10-11,59.0,30,9.17,90,39.16,-119.77,1539291300
Mackay,CA,2018-10-11,37.4,69,6.93,75,53.65,-115.58,1539288000
Yerbogachen,RU,2018-10-11,37.36,71,7.52,80,61.28,108.01,1539291837
Nhulunbuy,AU,2018-10-11,73.4,94,2.24,0,-12.18,136.78,1539289800
Bluff,AU,2018-10-11,69.76,88,8.97,92,-23.58,149.07,1539291704
Vaitape,PF,2018-10-11,78.31,100,13.67,64,-16.52,-151.75,1539291837
Hasaki,JP,2018-10-11,68.0,94,8.05,75,35.73,140.83,1539288000
Mayor Pablo Lagerenza,PY,2018-10-11,82.72,56,5.17,76,-19.93,-60.77,1539291838
Thinadhoo,MV,2018-10-11,83.08,98,5.39,44,0.53,72.93,1539291839
Voyvozh,RU,2018-10-11,32.95,71,12.44,44,62.89,54.96,1539291839
Hobart,AU,2018-10-11,48.2,81,5.82,75,-42.88,147.33,1539289800
Lermontovka,RU,2018-10-11,29.62,94,4.61,0,47.15,134.34,1539291839
Upernavik,GL,2018-10-11,27.19,100,13.11,24,72.79,-56.15,1539291839
Carbonia,IT,2018-10-11,71.6,88,3.36,20,39.17,8.53,1539287700
Urengoy,RU,2018-10-11,34.03,96,16.8,92,65.96,78.37,1539291840
Saint George,GR,2018-10-11,57.2,71,6.93,20,39.45,22.34,1539289200
Paragominas,BR,2018-10-11,82.81,75,5.39,36,-3.0,-47.35,1539291841
Kapaa,US,2018-10-11,82.94,69,11.41,20,22.08,-159.32,1539287760
Kyzyl-Suu,KG,2018-10-11,40.87,100,6.17,76,42.34,78.0,1539291841
Sitka,US,2018-10-11,50.68,99,7.4,36,37.17,-99.65,1539291841
Albany,US,2018-10-11,69.98,87,9.17,90,42.65,-73.75,1539291060
Yar-Sale,RU,2018-10-11,32.05,100,11.65,92,66.83,70.83,1539291842
Auki,NG,2018-10-11,78.4,55,5.17,80,12.18,6.51,1539291842
Sipovo,BA,2018-10-11,42.94,87,1.59,0,44.28,17.08,1539291843
Mataura,NZ,2018-10-11,42.58,87,17.81,92,-46.19,168.86,1539291826
Warrnambool,AU,2018-10-11,52.66,95,11.1,0,-38.38,142.48,1539291796
Qaanaaq,GL,2018-10-11,21.07,100,10.2,56,77.48,-69.36,1539291797
Ust-Kuyga,RU,2018-10-11,17.83,85,3.15,92,70.0,135.55,1539291843
Qasigiannguit,GL,2018-10-11,15.8,52,2.24,20,68.82,-51.19,1539291000
Avera,US,2018-10-11,87.08,54,13.87,40,33.19,-82.53,1539290100
Maniitsoq,GL,2018-10-11,20.8,100,4.16,0,65.42,-52.9,1539291844
Chuy,UY,2018-10-11,50.95,100,11.1,92,-33.69,-53.46,1539291844
Poronaysk,RU,2018-10-11,27.01,100,3.04,24,49.22,143.1,1539291845
Chokurdakh,RU,2018-10-11,20.71,86,2.59,80,70.62,147.9,1539291845
Ancud,CL,2018-10-11,54.55,61,6.17,32,-41.87,-73.83,1539291845
Santa Rosalia,IT,2018-10-11,71.6,77,3.36,40,38.07,13.27,1539287700
Holalkere,IN,2018-10-11,66.34,89,5.06,0,14.04,76.18,1539291846
Kaitangata,NZ,2018-10-11,42.58,83,19.6,88,-46.28,169.85,1539291846
College,US,2018-10-11,40.1,93,3.36,75,64.86,-147.8,1539288840
Frankfort,US,2018-10-11,64.04,53,11.41,1,38.2,-84.87,1539289800
Shunyi,CN,2018-10-11,37.4,93,4.47,0,40.13,116.65,1539288000
Port Lincoln,AU,2018-10-11,57.25,97,12.44,0,-34.72,135.86,1539291847
Pacific Grove,US,2018-10-11,71.06,49,4.7,20,36.62,-121.92,1539290100
Punta Arenas,CL,2018-10-11,51.8,50,26.4,75,-53.16,-70.91,1539288000
Jorpeland,NO,2018-10-11,60.8,67,17.22,0,59.02,6.04,1539289200
Tiksi,RU,2018-10-11,27.55,92,4.05,92,71.64,128.87,1539291848
Jamestown,AU,2018-10-11,48.61,90,7.74,0,-33.21,138.6,1539291849
Hithadhoo,MV,2018-10-11,83.71,99,5.5,88,-0.6,73.08,1539291849
Souillac,FR,2018-10-11,62.6,93,6.62,12,45.6,-0.6,1539289800
Sao Gabriel da Cachoeira,BR,2018-10-11,86.0,70,6.93,20,-0.13,-67.09,1539288000
Nikolskoye,RU,2018-10-11,41.0,100,2.24,8,59.7,30.79,1539289800
Saldanha,PT,2018-10-11,56.26,87,7.74,20,41.42,-6.55,1539291850
Kuliyapitiya,LK,2018-10-11,77.0,88,3.36,40,7.47,80.04,1539288600
Onega,RU,2018-10-11,43.75,100,10.98,0,63.91,38.09,1539291851
Saint-Philippe,CA,2018-10-11,55.58,100,10.29,90,45.36,-73.48,1539288900
Cape Town,ZA,2018-10-11,59.0,72,6.93,20,-33.93,18.42,1539288000
Yasnyy,RU,2018-10-11,33.76,80,7.4,0,64.04,44.09,1539291852
Gander,CA,2018-10-11,35.6,51,17.22,20,48.95,-54.61,1539288000
Petropavl,KZ,2018-10-11,40.69,89,11.21,8,54.87,69.13,1539291852
Bathsheba,BB,2018-10-11,84.2,74,10.29,40,13.22,-59.52,1539288000
Karatu,TZ,2018-10-11,67.6,67,11.1,24,-3.34,35.67,1539291853
Thompson,CA,2018-10-11,39.2,29,8.05,20,55.74,-97.86,1539288000
Airai,TL,2018-10-11,54.37,77,1.48,0,-8.93,125.41,1539291853
Turukhansk,RU,2018-10-11,32.68,87,19.15,92,65.8,87.96,1539291854
Dawson Creek,CA,2018-10-11,46.4,65,9.17,20,55.76,-120.23,1539289500
Tasiilaq,GL,2018-10-11,33.8,50,3.36,88,65.61,-37.64,1539291000
Naze,NG,2018-10-11,74.26,95,6.17,68,5.43,7.07,1539291855
Santa Cruz de la Palma,ES,2018-10-11,73.4,73,4.7,20,28.68,-17.76,1539289800
Praia da Vitoria,PT,2018-10-11,71.6,88,37.04,75,38.73,-27.07,1539288000
Dingle,PH,2018-10-11,75.61,94,6.17,24,11.0,122.67,1539291856
Whitianga,NZ,2018-10-11,58.06,100,30.89,76,-36.83,175.7,1539291856
Bilma,NE,2018-10-11,79.84,24,4.94,48,18.69,12.92,1539291856
Baghdad,IQ,2018-10-11,87.8,25,10.29,20,33.3,44.38,1539288000
Palpa,PE,2018-10-11,67.33,34,3.04,12,-14.53,-75.19,1539291857
Kenora,CA,2018-10-11,30.2,86,8.05,90,49.76,-94.48,1539290460
Senno,RU,2018-10-11,39.2,93,7.63,0,57.76,27.95,1539288000
Bambous Virieux,MU,2018-10-11,71.6,73,12.75,40,-20.34,57.76,1539288000
Yellowknife,CA,2018-10-11,33.8,80,4.7,90,62.45,-114.38,1539288000
Pochutla,MX,2018-10-11,80.6,88,11.41,90,15.74,-96.47,1539288300
Port Blair,IN,2018-10-11,83.08,100,11.65,64,11.67,92.75,1539291859
Nikolayevsk-na-amure,RU,2018-10-11,36.73,100,6.06,0,53.14,140.72,1539291859
Norman Wells,CA,2018-10-11,33.8,74,3.36,75,65.28,-126.83,1539288000
Bredasdorp,ZA,2018-10-11,60.8,72,3.36,76,-34.53,20.04,1539288000
Avarua,CK,2018-10-11,75.2,73,11.41,75,-21.21,-159.78,1539288000
Haines Junction,CA,2018-10-11,39.79,59,2.59,0,60.75,-137.51,1539291860
Jumla,NP,2018-10-11,29.71,84,2.15,0,29.28,82.18,1539291860
Fortuna,ES,2018-10-11,69.8,77,3.36,0,38.18,-1.13,1539289800
Mahebourg,MU,2018-10-11,71.6,73,12.75,40,-20.41,57.7,1539288000
Pinheiro Machado,BR,2018-10-11,58.96,58,16.8,44,-31.58,-53.38,1539291861
Mangrol,IN,2018-10-11,74.89,62,9.42,0,25.33,76.51,1539291861
Arraial do Cabo,BR,2018-10-11,75.2,88,4.7,75,-22.97,-42.02,1539291600
Kavieng,PG,2018-10-11,85.6,98,10.65,0,-2.57,150.8,1539291862
Dunedin,NZ,2018-10-11,37.18,100,15.01,92,-45.87,170.5,1539291691
Valparaiso,US,2018-10-11,53.96,93,14.99,20,41.47,-87.06,1539290700
Port Elizabeth,US,2018-10-11,82.58,90,6.93,75,39.31,-74.98,1539291300
Oum Hadjer,TD,2018-10-11,73.54,52,4.16,0,13.3,19.7,1539291863
Meulaboh,ID,2018-10-11,75.43,100,3.71,68,4.14,96.13,1539291863
Srednekolymsk,RU,2018-10-11,25.39,91,2.93,88,67.46,153.71,1539291863
Port Hardy,CA,2018-10-11,50.0,81,8.05,75,50.7,-127.42,1539288000
Esna,RO,2018-10-11,53.38,84,7.4,0,45.2,27.57,1539291864
Lebu,ET,2018-10-11,59.0,41,4.7,40,8.96,38.73,1539288000
Guozhen,CN,2018-10-11,48.16,84,5.39,24,29.3,113.14,1539291865
Cidreira,BR,2018-10-11,64.09,73,18.48,80,-30.17,-50.22,1539291865
Bethel,US,2018-10-11,42.08,92,12.75,20,60.79,-161.76,1539287580
Lagoa,PT,2018-10-11,71.6,83,5.82,75,37.14,-8.45,1539289800
Springdale,US,2018-10-11,62.6,45,8.05,1,36.19,-94.13,1539287880
Lompoc,US,2018-10-11,69.08,52,10.29,90,34.64,-120.46,1539290100
Dudinka,RU,2018-10-11,29.62,85,19.6,80,69.41,86.18,1539291696
Udobnaya,RU,2018-10-11,46.63,87,4.94,0,44.2,41.55,1539291867
Tautira,PF,2018-10-11,84.2,62,6.93,75,-17.73,-149.15,1539290100
Vao,EE,2018-10-11,45.91,96,5.73,56,59.1,26.19,1539291868
Vila Franca do Campo,PT,2018-10-11,71.6,83,25.28,75,37.72,-25.43,1539289800
Faya,SA,2018-10-11,68.0,72,3.36,0,18.39,42.45,1539288000
Kalemie,CD,2018-10-11,75.88,100,6.17,68,-5.95,29.2,1539291868
Belyy Yar,RU,2018-10-11,28.4,86,2.24,0,53.6,91.39,1539289800
Faanui,PF,2018-10-11,80.47,99,13.78,24,-16.48,-151.75,1539291869
Marmora,IT,2018-10-11,44.47,100,1.03,76,44.46,7.09,1539291869
Jawhar,IN,2018-10-11,73.99,81,3.04,8,19.91,73.23,1539291870
Esperance,TT,2018-10-11,87.8,66,6.93,20,10.24,-61.45,1539288000
Rokytne,UA,2018-10-11,49.51,92,7.74,0,51.27,27.23,1539291871
Provideniya,RU,2018-10-11,41.0,80,17.9,90,64.42,-173.23,1539289800
Illela,NG,2018-10-11,80.29,72,4.94,76,12.25,4.3,1539291872
Cherskiy,RU,2018-10-11,23.95,100,2.15,76,68.75,161.3,1539291872
Mizan Teferi,ET,2018-10-11,59.41,91,2.04,12,6.99,35.58,1539291872
Palimbang,PH,2018-10-11,82.4,83,2.24,75,14.9,120.78,1539288000
Tuktoyaktuk,CA,2018-10-11,23.0,92,11.41,20,69.44,-133.03,1539289260
Katobu,ID,2018-10-11,76.33,100,3.49,0,-4.94,122.53,1539291873
Kruisfontein,ZA,2018-10-11,62.65,93,15.46,88,-34.0,24.73,1539291873
Tabuk,PH,2018-10-11,66.61,97,1.48,56,17.41,121.44,1539291873
Key West,US,2018-10-11,30.2,80,12.75,90,47.93,-96.78,1539291300
Quincy,US,2018-10-11,87.08,57,9.17,1,30.59,-84.58,1539287580
Kathu,ZA,2018-10-11,69.85,22,10.65,12,-27.7,23.05,1539291875
Charyshskoye,RU,2018-10-11,41.86,57,9.08,0,51.4,83.56,1539291875
Tecoanapa,MX,2018-10-11,86.0,74,5.82,75,16.99,-99.26,1539286980
Pringsewu,ID,2018-10-11,71.83,88,1.36,0,-5.36,104.98,1539291875
Sunrise Manor,US,2018-10-11,77.36,23,4.05,1,36.21,-115.07,1539291360
Kloulklubed,PW,2018-10-11,77.0,94,4.7,75,7.04,134.26,1539291000
Los Llanos de Aridane,ES,2018-10-11,73.4,73,4.7,20,28.66,-17.92,1539289800
Isangel,VU,2018-10-11,75.34,100,8.52,32,-19.55,169.27,1539291877
Uromi,NG,2018-10-11,74.62,92,8.19,64,6.71,6.33,1539291877
Escanaba,US,2018-10-11,44.06,11,19.46,90,45.75,-87.06,1539287760
Ponta do Sol,BR,2018-10-11,81.28,53,5.17,48,-20.63,-46.0,1539291877
Esfarayen,IR,2018-10-11,51.8,57,2.24,0,37.08,57.51,1539288000
Ambon,FR,2018-10-11,59.0,93,10.29,0,47.55,-2.56,1539289800
Champerico,MX,2018-10-11,86.0,58,3.36,75,16.38,-93.6,1539287220
Ostrovnoy,RU,2018-10-11,32.32,91,14.67,0,68.05,39.51,1539291879
Tongren,CN,2018-10-11,45.01,90,3.38,20,27.72,109.18,1539291879
Tomatlan,MX,2018-10-11,86.95,47,5.06,0,19.93,-105.25,1539291879
Lavrentiya,RU,2018-10-11,42.31,100,20.04,92,65.58,-170.99,1539291880
Necochea,AR,2018-10-11,56.62,62,6.51,20,-38.55,-58.74,1539291863
Padang,ID,2018-10-11,78.85,100,11.99,76,-0.92,100.36,1539291880
Arshan,YE,2018-10-11,59.86,36,0.69,36,14.32,46.95,1539291881
Beringovskiy,RU,2018-10-11,41.14,100,24.29,92,63.05,179.32,1539291881
Honggang,CN,2018-10-11,45.91,83,3.71,44,29.51,114.87,1539291881
Itarema,BR,2018-10-11,82.99,58,18.25,0,-2.92,-39.92,1539291861
Raudeberg,NO,2018-10-11,64.4,45,18.34,24,61.99,5.14,1539289200
Portland,US,2018-10-11,68.0,55,8.05,20,45.52,-122.67,1539287760
Brae,GB,2018-10-11,55.4,93,26.4,88,60.4,-1.35,1539291000
Sinazongwe,ZM,2018-10-11,69.76,61,2.37,0,-17.26,27.46,1539291882
Mpika,ZM,2018-10-11,74.26,39,6.73,92,-11.84,31.4,1539291882
Saint-Medard-en-Jalles,FR,2018-10-11,60.8,93,2.24,12,44.9,-0.72,1539289800
Makakilo City,US,2018-10-11,84.02,60,8.05,20,21.35,-158.09,1539288660
Kachiry,KZ,2018-10-11,49.06,52,14.12,8,53.07,76.1,1539291883
Hamilton,CA,2018-10-11,62.6,67,17.22,75,43.26,-79.87,1539288000
Flinders,AU,2018-10-11,53.6,81,8.05,75,-34.58,150.85,1539288000
Gazanjyk,TM,2018-10-11,44.74,80,2.15,0,39.24,55.52,1539291884
Antofagasta,CL,2018-10-11,59.0,82,13.87,90,-23.65,-70.4,1539288000
Aleksandrovskoye,RU,2018-10-11,41.86,55,8.52,36,56.74,85.39,1539291885
Klaksvik,FO,2018-10-11,51.8,100,13.87,76,62.23,-6.59,1539289200
Nome,US,2018-10-11,82.04,41,9.17,1,30.04,-94.42,1539288900
Turangi,NZ,2018-10-11,45.82,100,16.02,92,-39.0,175.93,1539291886
Kununurra,AU,2018-10-11,71.6,88,4.16,0,-15.77,128.74,1539289800
Bom Jesus,BR,2018-10-11,94.51,23,7.07,0,-9.08,-44.36,1539291886
Nokaneng,BW,2018-10-11,72.55,26,9.42,0,-19.66,22.19,1539291887
East London,ZA,2018-10-11,67.24,100,23.73,100,-33.02,27.91,1539291887
Raymond,US,2018-10-11,57.92,96,4.7,90,43.04,-71.18,1539291360
Svalyava,UA,2018-10-11,45.91,82,2.04,0,48.55,22.99,1539291888
Ila,NO,2018-10-11,62.6,42,14.99,0,63.43,10.37,1539289200
Daru,SL,2018-10-11,75.25,92,4.61,68,7.99,-10.85,1539291889
Pangnirtung,CA,2018-10-11,23.0,67,9.17,20,66.15,-65.72,1539288000
Ust-Nera,RU,2018-10-11,5.5,89,1.7,44,64.57,143.24,1539291889
Hay River,CA,2018-10-11,35.6,59,8.05,90,60.82,-115.79,1539288000
San Quintin,PH,2018-10-11,66.79,82,2.48,12,17.54,120.52,1539291890
Clyde River,CA,2018-10-11,15.8,78,5.82,75,70.47,-68.59,1539288000
Khilchipur,IN,2018-10-11,74.8,54,8.97,0,24.05,76.58,1539291890
Torbay,CA,2018-10-11,35.6,74,23.04,75,47.66,-52.73,1539289860
Hilo,US,2018-10-11,77.0,81,9.17,90,19.71,-155.08,1539289980
Telhara,IN,2018-10-11,72.1,61,4.16,20,21.03,76.85,1539291891
Petropavlovsk-Kamchatskiy,RU,2018-10-11,35.6,93,2.24,12,53.05,158.65,1539289800
Aswan,EG,2018-10-11,78.8,19,5.82,0,24.09,32.9,1539288000
Eyl,SO,2018-10-11,76.06,94,9.75,20,7.98,49.82,1539291892
San Juan,AR,2018-10-11,68.59,33,3.15,92,-31.54,-68.53,1539291893
Mujiayingzi,CN,2018-10-11,23.86,69,2.59,0,42.12,118.78,1539291894
Phek,IN,2018-10-11,62.83,98,1.92,92,25.7,94.46,1539291894
Codrington,AU,2018-10-11,58.33,100,4.72,92,-28.95,153.24,1539291894
Usvyaty,RU,2018-10-11,36.46,83,2.71,0,55.75,30.75,1539291895
Peniche,PT,2018-10-11,64.4,82,9.17,0,39.36,-9.38,1539289800
Dikson,RU,2018-10-11,31.78,100,17.81,48,73.51,80.55,1539291895
Katav-Ivanovsk,RU,2018-10-11,32.86,93,5.5,88,54.75,58.21,1539291895
Caravelas,BR,2018-10-11,77.32,100,17.58,0,-17.73,-39.27,1539291896
Bereslavka,UA,2018-10-11,49.96,90,9.42,8,47.89,32.29,1539291896
Locharbriggs,GB,2018-10-11,50.0,93,5.82,0,55.1,-3.58,1539287400
Jieshi,CN,2018-10-11,70.48,100,17.58,76,22.82,115.83,1539291897
Camacari,BR,2018-10-11,80.6,69,12.75,20,-12.7,-38.32,1539291600
Quelimane,MZ,2018-10-11,78.8,83,6.93,75,-17.88,36.89,1539288000
West Lorne,CA,2018-10-11,55.4,66,10.29,75,42.6,-81.61,1539288000
Ust-Karsk,RU,2018-10-11,31.24,79,2.59,36,52.71,118.82,1539291898
Lata,IN,2018-10-11,40.78,78,2.15,0,30.78,78.62,1539291898
Lodja,CD,2018-10-11,68.41,98,1.03,76,-3.52,23.6,1539291898
Laibin,CN,2018-10-11,56.98,73,6.73,8,23.74,109.23,1539291899
Khargone,IN,2018-10-11,70.75,72,2.59,32,21.82,75.61,1539291899
Wewak,PG,2018-10-11,76.87,96,3.38,20,-3.55,143.63,1539291899
Qandala,SO,2018-10-11,67.24,74,1.36,0,11.47,49.87,1539291899
Kudahuvadhoo,MV,2018-10-11,82.18,100,6.96,88,2.67,72.89,1539291899
Fairbanks,US,2018-10-11,40.1,93,3.36,75,64.84,-147.72,1539288840
Georgetown,GY,2018-10-11,89.6,66,16.11,20,6.8,-58.16,1539288000
Jasper,US,2018-10-11,78.08,44,12.75,1,33.83,-87.28,1539290100
Sangar,RU,2018-10-11,24.22,76,7.96,80,63.92,127.47,1539291901
Hearst,CA,2018-10-11,36.46,99,7.52,80,49.69,-83.67,1539291902
Am Timan,TD,2018-10-11,76.24,65,4.94,8,11.04,20.28,1539291687
Shadegan,IR,2018-10-11,84.2,79,9.17,0,30.65,48.67,1539288000
Cabo San Lucas,MX,2018-10-11,82.4,69,9.17,75,22.89,-109.91,1539286800
Mikkeli,FI,2018-10-11,51.8,87,4.7,90,61.69,27.27,1539291000
Vengerovo,RU,2018-10-11,50.77,51,16.8,68,55.68,76.74,1539291903
Agadez,NE,2018-10-11,79.3,19,8.75,0,16.97,7.99,1539291969
Victoria,BN,2018-10-11,82.4,78,4.7,75,5.28,115.24,1539289800
Semnan,IR,2018-10-11,54.73,60,3.49,0,35.58,53.39,1539291891
Ilulissat,GL,2018-10-11,15.8,52,2.24,20,69.22,-51.1,1539291000
Castro,CL,2018-10-11,52.39,68,5.95,32,-42.48,-73.76,1539291905
Coruripe,BR,2018-10-11,78.49,95,14.56,24,-10.12,-36.18,1539291906
Miguel Calmon,BR,2018-10-11,79.75,38,7.52,0,-11.43,-40.6,1539291906
Ledyard,US,2018-10-11,73.94,100,13.87,90,41.44,-72.02,1539291360
Bilibino,RU,2018-10-11,14.77,84,3.04,44,68.06,166.44,1539291907
Homer,US,2018-10-11,51.98,71,6.93,75,59.64,-151.54,1539287580
Tefe,BR,2018-10-11,87.8,58,6.93,40,-3.35,-64.71,1539288000
Nanortalik,GL,2018-10-11,35.38,91,22.06,0,60.14,-45.24,1539291907
Usinsk,RU,2018-10-11,30.61,87,15.12,12,66.0,57.56,1539291908
Khash,IR,2018-10-11,40.51,36,3.04,0,28.22,61.21,1539291908
Itoman,JP,2018-10-11,68.0,88,11.41,75,26.12,127.67,1539289320
Narsaq,GL,2018-10-11,33.8,50,3.36,20,60.91,-46.05,1539287400
Kahului,US,2018-10-11,87.08,57,14.99,40,20.89,-156.47,1539287760
Marsta,SE,2018-10-11,50.0,93,5.82,20,59.93,17.59,1539289200
Arvika,SE,2018-10-11,53.11,83,7.07,0,59.65,12.59,1539291909
Tuatapere,NZ,2018-10-11,42.49,100,22.62,92,-46.13,167.69,1539291910
Bay City,US,2018-10-11,50.0,61,12.75,90,43.59,-83.89,1539290100
Moose Factory,CA,2018-10-11,39.2,100,3.36,90,51.26,-80.61,1539289020
Saint-Georges,CA,2018-10-11,50.86,95,8.52,92,46.12,-70.67,1539291864
Tigzirt,DZ,2018-10-11,57.34,98,1.59,32,36.57,4.2,1539291911
Vostok,RU,2018-10-11,37.72,100,2.48,80,46.45,135.83,1539291911
Butembo,CD,2018-10-11,61.03,100,2.04,56,0.12,29.29,1539291911
Tshikapa,CD,2018-10-11,73.27,94,2.48,44,-6.42,20.79,1539291912
Saint-Pierre,FR,2018-10-11,68.0,72,14.99,92,48.95,4.24,1539289800
Port Macquarie,AU,2018-10-11,55.4,82,5.82,90,-31.43,152.91,1539288000
Coihaique,CL,2018-10-11,53.6,37,8.05,0,-45.58,-72.07,1539288000
Yuryuzan,RU,2018-10-11,32.86,93,5.5,88,54.87,58.43,1539291913
Henties Bay,NA,2018-10-11,57.97,99,5.39,0,-22.12,14.28,1539291913
Hambantota,LK,2018-10-11,78.4,100,9.53,92,6.12,81.12,1539291913
Brownsville,US,2018-10-11,87.98,76,11.41,20,25.91,-97.49,1539287580
Longyearbyen,NO,2018-10-11,32.0,100,10.29,75,78.22,15.63,1539287400
Logrono,ES,2018-10-11,60.8,93,3.04,20,42.47,-2.45,1539289800
Mongo,CF,2018-10-11,69.04,100,2.15,76,4.83,22.92,1539291915
Smithers,CA,2018-10-11,42.8,75,2.24,90,54.78,-127.17,1539288000
Harper,US,2018-10-11,76.46,53,9.17,75,30.3,-99.24,1539288900
Bandarbeyla,SO,2018-10-11,76.69,90,11.43,0,9.49,50.81,1539291911
Sistranda,NO,2018-10-11,59.0,54,21.92,0,63.73,8.83,1539289200
Celestun,MX,2018-10-11,83.62,98,10.98,0,20.87,-90.4,1539291892
Lhokseumawe,ID,2018-10-11,79.84,100,9.64,92,5.18,97.15,1539291917
Imbituba,BR,2018-10-11,69.8,64,10.29,75,-28.24,-48.67,1539288000
Santa Maria,BR,2018-10-11,69.8,64,18.34,75,-29.69,-53.81,1539288000
Bay Roberts,CA,2018-10-11,35.6,74,23.04,75,47.58,-53.28,1539289860
Makasar,ID,2018-10-11,80.6,78,2.24,20,-6.28,106.88,1539289800
Bayir,TR,2018-10-11,64.4,72,4.7,0,37.27,28.22,1539289200
Goderich,CA,2018-10-11,54.01,82,23.62,8,43.74,-81.71,1539291920
Kantemirovka,RU,2018-10-11,45.73,67,9.53,0,49.7,39.85,1539291921
Severo-Kurilsk,RU,2018-10-11,46.27,96,17.02,100,50.68,156.12,1539291921
Tiznit,MA,2018-10-11,65.98,98,3.38,0,29.7,-9.73,1539291746
Lakatoro,VU,2018-10-11,79.75,87,7.18,8,-16.11,167.42,1539291922
Labuhan,ID,2018-10-11,72.73,96,2.37,48,-2.54,115.51,1539291922
Mushie,CD,2018-10-11,70.57,100,2.37,76,-3.02,16.92,1539291922
Katsuura,JP,2018-10-11,58.15,96,10.2,92,33.93,134.5,1539291922
Tortoli,IT,2018-10-11,68.0,82,1.48,20,39.93,9.66,1539287700
Salalah,OM,2018-10-11,86.0,55,12.75,40,17.01,54.1,1539287400
Glotovka,RU,2018-10-11,41.32,62,11.21,56,53.95,46.7,1539291753
Kabalo,CD,2018-10-11,69.58,100,3.49,92,-6.05,26.92,1539291924
Beloha,MG,2018-10-11,67.6,89,11.1,92,-25.17,45.06,1539291924
Reoti,IN,2018-10-11,73.36,87,6.17,80,25.85,84.38,1539291925
Campbell River,CA,2018-10-11,53.6,93,2.24,90,50.02,-125.24,1539289860
Sao Filipe,CV,2018-10-11,80.11,95,13.22,0,14.9,-24.5,1539291925
Kochubey,RU,2018-10-11,58.15,99,4.94,0,44.39,46.54,1539291925
Tevaitoa,PF,2018-10-11,78.67,100,14.67,76,-16.78,-151.5,1539291926
Campeche,MX,2018-10-11,87.8,74,11.41,40,19.84,-90.54,1539287160
Ostroleka,PL,2018-10-11,53.29,71,11.1,0,53.09,21.58,1539291767
Badou,TG,2018-10-11,73.45,94,3.15,32,7.58,0.61,1539291926
Sao Joao da Barra,BR,2018-10-11,77.0,78,6.93,75,-21.64,-41.05,1539288000
Roebourne,AU,2018-10-11,64.09,62,4.94,0,-20.77,117.15,1539291927
Shaunavon,CA,2018-10-11,37.63,98,4.94,44,49.65,-108.41,1539291927
Sirmaur,IN,2018-10-11,71.38,88,3.6,20,24.84,81.37,1539291927
Pochinok,RU,2018-10-11,36.82,84,2.93,0,54.4,32.44,1539291928
Ust-Ilimsk,RU,2018-10-11,38.08,67,5.5,64,57.96,102.73,1539291928
Surazh,RU,2018-10-11,41.59,88,3.71,0,53.01,32.39,1539291928
Gizo,IL,2018-10-11,77.0,61,5.82,75,31.8,34.94,1539289200
Hammerfest,NO,2018-10-11,44.6,80,10.29,40,70.66,23.68,1539289200
Ahipara,NZ,2018-10-11,57.97,89,27.09,92,-35.17,173.16,1539291929
Alcaniz,ES,2018-10-11,55.54,78,3.04,8,41.05,-0.13,1539291929
Yumen,CN,2018-10-11,30.88,68,4.16,0,40.29,97.04,1539291930
Monroe,US,2018-10-11,57.2,58,18.34,90,41.91,-83.4,1539291180
Montes Claros,BR,2018-10-11,95.0,15,10.29,0,-16.73,-43.87,1539288000
Belmonte,PT,2018-10-11,57.16,89,5.61,44,40.36,-7.35,1539291931
Petrovsk-Zabaykalskiy,RU,2018-10-11,25.21,70,2.15,8,51.27,108.84,1539291931
Palafrugell,ES,2018-10-11,66.2,93,4.7,20,41.92,3.16,1539289800
Prachuap Khiri Khan,TH,2018-10-11,73.81,94,1.59,88,11.81,99.79,1539291932
Dafeng,CN,2018-10-11,45.82,78,6.51,0,33.2,120.46,1539291932
Saskylakh,RU,2018-10-11,25.93,92,4.05,92,71.97,114.09,1539291932
Grootfontein,NA,2018-10-11,63.82,32,6.17,0,-19.56,18.1,1539291933
Simbahan,PH,2018-10-11,86.41,95,4.61,68,6.3,120.58,1539291933
Alice Springs,AU,2018-10-11,62.6,88,5.82,0,-23.7,133.88,1539289800
Maramba,ID,2018-10-11,67.33,100,0.47,92,-2.58,120.81,1539291933
Tuni,BO,2018-10-11,48.2,76,10.29,90,-16.67,-68.14,1539288000
Lafiagi,NG,2018-10-11,78.4,82,4.72,68,8.85,5.42,1539291934
San Jeronimo,PE,2018-10-11,60.49,39,2.37,64,-13.65,-73.37,1539291934
Lorengau,PG,2018-10-11,83.53,100,10.54,44,-2.02,147.27,1539291934
Ulladulla,AU,2018-10-11,53.6,81,8.05,75,-35.36,150.48,1539288000
Boa Vista,BR,2018-10-11,96.8,34,9.17,20,2.82,-60.67,1539291600
Vinces,EC,2018-10-11,80.6,65,8.05,75,-1.56,-79.75,1539288000
Morehead,US,2018-10-11,62.06,69,6.93,75,38.18,-83.43,1539287580
Tiarei,PF,2018-10-11,84.2,62,6.93,75,-17.53,-149.33,1539290100
Marakkanam,IN,2018-10-11,80.83,100,17.47,0,12.2,79.95,1539291936
Cairns,AU,2018-10-11,69.8,88,4.7,20,-16.92,145.77,1539289800
Kyabe,TD,2018-10-11,78.58,61,8.52,24,9.45,18.94,1539291937
Hervey Bay,AU,2018-10-11,68.68,100,9.64,92,-25.3,152.85,1539291937
Whyalla,AU,2018-10-11,48.2,87,4.7,75,-33.04,137.58,1539288000
Shirokiy,RU,2018-10-11,38.53,87,7.74,0,53.87,39.17,1539291937
Andra,RU,2018-10-11,34.39,91,17.69,88,62.52,65.89,1539291938
Neuquen,AR,2018-10-11,62.6,33,11.41,75,-38.95,-68.06,1539288000
Luderitz,NA,2018-10-11,66.2,55,18.34,12,-26.65,15.16,1539288000
Pala,IN,2018-10-11,78.8,88,3.36,40,9.71,76.68,1539289800
Kulim,MY,2018-10-11,78.8,88,1.7,75,5.37,100.55,1539289800
Noumea,NC,2018-10-11,71.6,78,1.36,75,-22.28,166.46,1539289800
Lima,PE,2018-10-11,68.05,48,3.15,8,-12.06,-77.04,1539291940
Novyy Urengoy,RU,2018-10-11,32.95,98,10.2,92,66.08,76.63,1539291940
Cayenne,GF,2018-10-11,86.0,70,12.75,0,4.94,-52.33,1539289800
Xiuyan,CN,2018-10-11,24.76,85,2.37,0,40.29,123.27,1539291941
Margate,AU,2018-10-11,48.2,81,5.82,75,-43.03,147.26,1539289800
Temir,KZ,2018-10-11,41.23,92,11.1,0,49.14,57.13,1539291942
Talnakh,RU,2018-10-11,28.36,94,16.13,68,69.49,88.39,1539291942
Sept-Iles,CA,2018-10-11,30.2,92,8.05,90,50.2,-66.38,1539290520
Khatanga,RU,2018-10-11,20.53,86,11.99,0,71.98,102.47,1539291943
La Ronge,CA,2018-10-11,41.0,44,4.7,20,55.1,-105.3,1539288000
Canutama,BR,2018-10-11,79.66,88,3.49,24,-6.53,-64.38,1539291947
Arkadak,RU,2018-10-11,41.86,70,9.08,0,51.94,43.49,1539291947
Mitu,IR,2018-10-11,47.71,73,2.04,48,36.2,46.09,1539291947
Sibiti,CG,2018-10-11,72.46,93,2.71,92,-3.69,13.35,1539291948
Zyryanka,RU,2018-10-11,22.15,92,2.93,88,65.73,150.89,1539291948
Rock Springs,US,2018-10-11,41.0,11,9.17,20,41.59,-109.2,1539287640
Nouakchott,MR,2018-10-11,83.98,93,22.28,0,18.08,-15.98,1539291949
Coquimbo,CL,2018-10-11,59.0,62,9.17,75,-29.95,-71.34,1539288000
Berlevag,NO,2018-10-11,41.0,100,13.87,40,70.86,29.09,1539291000
Chama,ZM,2018-10-11,72.64,55,10.54,24,-11.22,33.16,1539291950
Virginia Beach,US,2018-10-11,82.94,77,17.22,90,36.85,-75.98,1539291240
Grindavik,IS,2018-10-11,48.2,87,24.16,90,63.84,-22.43,1539289800
Akureyri,IS,2018-10-11,51.8,76,6.93,90,65.68,-18.09,1539288000
Tsumeb,NA,2018-10-11,65.98,27,6.17,0,-19.25,17.72,1539291950
Mingyue,CN,2018-10-11,35.11,87,5.17,0,43.11,128.91,1539291951
Marica,BR,2018-10-11,77.0,88,9.17,75,-22.92,-42.82,1539288000
Salym,RU,2018-10-11,39.79,97,3.6,92,60.06,71.48,1539291952
Durazno,UY,2018-10-11,51.8,87,11.41,75,-33.38,-56.52,1539288000
Forasti,RO,2018-10-11,53.6,66,3.36,0,47.35,26.47,1539289800
Luanda,AO,2018-10-11,75.2,83,5.82,40,-8.83,13.24,1539288000
Port Perry,CA,2018-10-11,62.6,63,13.87,75,44.1,-78.95,1539288000
Unisan,PH,2018-10-11,80.47,100,10.54,56,13.84,121.98,1539291958
Laguna,MX,2018-10-11,86.0,42,6.93,75,27.52,-110.01,1539286860
Green River,US,2018-10-11,41.0,11,9.17,20,41.53,-109.47,1539287640
Rio Gallegos,AR,2018-10-11,53.6,34,10.29,40,-51.62,-69.22,1539288000
Lensk,RU,2018-10-11,37.63,94,5.95,76,60.71,114.91,1539291960
Iquitos,PE,2018-10-11,86.0,70,4.7,75,-3.75,-73.25,1539288000
Senanga,ZM,2018-10-11,64.99,52,3.15,0,-16.1,23.3,1539291961
Vallenar,CL,2018-10-11,56.17,85,2.37,92,-28.58,-70.76,1539291961
Mahon,IE,2018-10-11,53.6,87,26.4,75,51.89,-8.4,1539291600
Prado,BR,2018-10-11,77.41,97,16.13,20,-17.34,-39.22,1539291962
Port Shepstone,ZA,2018-10-11,70.21,88,20.27,68,-30.74,30.45,1539291962
Qaqortoq,GL,2018-10-11,33.8,50,3.36,20,60.72,-46.03,1539287400
Cockburn Town,TC,2018-10-11,81.82,100,9.19,80,21.46,-71.14,1539291963
Acajutla,SV,2018-10-11,84.2,79,14.99,20,13.59,-89.83,1539287400
Kollam,IN,2018-10-11,80.6,83,3.36,75,8.88,76.6,1539289800
Dongying,CN,2018-10-11,32.05,71,2.71,0,37.43,118.67,1539291964
Kawambwa,ZM,2018-10-11,69.85,86,2.48,88,-9.8,29.07,1539291964
Damietta,EG,2018-10-11,77.0,69,8.05,20,31.42,31.81,1539288000
Kutum,SD,2018-10-11,69.67,24,9.53,0,14.2,24.66,1539291965
Novyy Urgal,RU,2018-10-11,21.79,71,2.59,0,51.07,132.56,1539291965
Chernyshevskiy,RU,2018-10-11,35.92,97,7.52,92,63.01,112.47,1539291966
Cabedelo,BR,2018-10-11,78.8,69,17.22,20,-6.97,-34.84,1539288000
Paamiut,GL,2018-10-11,35.2,100,26.31,0,61.99,-49.67,1539291967
Alofi,NU,2018-10-11,80.6,78,9.17,75,-19.06,-169.92,1539288000
Zhigansk,RU,2018-10-11,29.26,92,4.72,76,66.77,123.37,1539291967
Umm Kaddadah,SD,2018-10-11,77.95,23,9.98,0,13.6,26.69,1539291967
Pec,DE,2018-10-11,62.6,59,3.36,0,49.4,12.83,1539288000
Acapulco,MX,2018-10-11,86.0,74,5.82,75,16.86,-99.88,1539286980
Obo,CF,2018-10-11,69.13,98,3.6,92,5.39,26.49,1539291968
Bagdarin,RU,2018-10-11,27.55,77,3.6,8,54.44,113.59,1539291969
Sohag,EG,2018-10-11,66.34,56,4.38,0,26.55,31.7,1539291969
Comodoro Rivadavia,AR,2018-10-11,62.6,51,6.93,20,-45.87,-67.48,1539288000
Straumen,NO,2018-10-11,62.6,42,14.99,0,63.87,11.3,1539289200
Inhambane,MZ,2018-10-11,73.99,93,10.65,0,-23.87,35.38,1539291973
Dalhousie,IN,2018-10-11,47.53,69,1.7,24,32.54,75.98,1539291973
Chara,GR,2018-10-11,57.2,71,6.93,20,39.42,22.43,1539289200
Pisco,PE,2018-10-11,71.6,30,13.87,75,-13.71,-76.2,1539288000
Gat,SN,2018-10-11,87.85,41,6.06,0,14.69,-16.54,1539291975
Namatanai,PG,2018-10-11,84.16,97,9.42,0,-3.66,152.44,1539291975
Nuuk,GL,2018-10-11,21.2,85,8.05,5,64.17,-51.74,1539291000
San Patricio,PY,2018-10-11,71.83,100,2.71,92,-26.98,-56.83,1539291976
Collie,AU,2018-10-11,57.7,100,7.18,88,-33.36,116.15,1539291976
Buraydah,SA,2018-10-11,82.4,24,5.82,0,26.33,43.97,1539288000
Ondjiva,AO,2018-10-11,69.31,19,8.41,0,-17.07,15.73,1539291977
Maragogi,BR,2018-10-11,76.78,78,9.75,64,-9.01,-35.22,1539291762
Tailai,CN,2018-10-11,31.69,86,4.72,0,46.39,123.41,1539291977
Verkhoyansk,RU,2018-10-11,8.38,78,2.48,20,67.55,133.39,1539291977
Hays,US,2018-10-11,44.06,10,3.36,90,38.88,-99.33,1539287760
Humaita,AR,2018-10-11,62.6,77,8.05,90,-24.93,-65.37,1539288000
Yanam,IN,2018-10-11,80.74,75,9.42,8,16.73,82.22,1539291979
Chipata,ZM,2018-10-11,69.13,66,10.42,12,-13.64,32.65,1539291979
Kuryk,KZ,2018-10-11,51.94,87,6.06,0,43.18,51.68,1539291979
General Roca,AR,2018-10-11,62.6,33,11.41,75,-39.03,-67.58,1539288000
Pitimbu,BR,2018-10-11,78.8,69,17.22,20,-7.47,-34.81,1539288000
Carupano,VE,2018-10-11,83.26,84,10.09,36,10.67,-63.26,1539291980
Bindura,ZW,2018-10-11,64.09,49,5.06,0,-17.3,31.33,1539291980
Bandiagara,ML,2018-10-11,77.86,72,1.92,64,14.35,-3.61,1539291981
Hualmay,PE,2018-10-11,69.04,70,5.73,24,-11.1,-77.61,1539291981
Gedo,ET,2018-10-11,53.2,90,1.7,0,9.01,37.45,1539291982
Elizabeth City,US,2018-10-11,84.02,77,17.22,90,36.3,-76.22,1539291240
Yangshan,CN,2018-10-11,36.01,100,1.36,48,31.68,103.77,1539291982
Kalat,PK,2018-10-11,28.36,64,1.59,0,29.03,66.58,1539291983
Mnogovershinnyy,RU,2018-10-11,34.48,88,2.48,36,53.94,139.92,1539291984
Birao,CF,2018-10-11,76.96,63,8.08,20,10.3,22.78,1539291984
Correntina,BR,2018-10-11,88.39,22,7.96,0,-13.34,-44.63,1539291984
Asyut,EG,2018-10-11,73.4,46,6.93,0,27.18,31.19,1539288000
Nueva Guinea,NI,2018-10-11,84.43,69,5.61,24,11.69,-84.46,1539291985
Taltal,CL,2018-10-11,63.46,70,3.94,0,-25.41,-70.49,1539291986
Hami,CN,2018-10-11,37.99,51,6.96,0,42.84,93.51,1539291986
South Charleston,US,2018-10-11,62.96,80,9.17,75,38.37,-81.7,1539289020
Palizada,MX,2018-10-11,86.0,70,6.93,90,18.25,-92.09,1539286920
Ukiah,US,2018-10-11,64.04,55,2.04,1,39.15,-123.21,1539287760
Banjar,ID,2018-10-11,70.48,95,2.48,64,-7.37,108.54,1539291987
Troitsko-Pechorsk,RU,2018-10-11,33.13,73,9.08,64,62.71,56.19,1539291987
Lufilufi,WS,2018-10-11,79.93,100,16.58,56,-13.87,-171.6,1539291988
Liverpool,GB,2018-10-11,50.0,100,5.82,20,53.41,-2.98,1539291000
Ayagoz,KZ,2018-10-11,36.19,65,7.07,0,47.96,80.43,1539291988
Shadrinsk,RU,2018-10-11,38.53,81,16.24,80,56.09,63.63,1539291989
Camacupa,AO,2018-10-11,59.86,53,1.59,0,-12.02,17.48,1539291989
Lasa,CY,2018-10-11,71.6,77,5.82,20,34.92,32.53,1539289800
Alyangula,AU,2018-10-11,78.58,100,6.51,0,-13.85,136.42,1539291990
Kirakira,SB,2018-10-11,83.17,100,13.67,88,-10.46,161.92,1539291990
Fort Nelson,CA,2018-10-11,37.4,59,2.24,75,58.81,-122.69,1539288000
Barsovo,RU,2018-10-11,41.0,100,4.47,75,61.17,73.17,1539289800
Ilo,PE,2018-10-11,66.88,76,5.39,8,-17.65,-71.34,1539291991
Guerrero Negro,MX,2018-10-11,69.04,84,5.61,92,27.97,-114.04,1539291991
Pemba,MZ,2018-10-11,79.03,100,4.5,100,-12.97,40.52,1539291785
Vardo,US,2018-10-11,75.2,94,3.36,90,39.62,-77.74,1539290820
Nishihara,JP,2018-10-11,68.0,100,3.36,75,35.74,139.53,1539289560
Batagay-Alyta,RU,2018-10-11,11.08,78,2.93,80,67.8,130.41,1539291993
Sambava,MG,2018-10-11,74.08,100,20.04,92,-14.27,50.17,1539291993
Nenjiang,CN,2018-10-11,27.19,73,3.04,0,49.17,125.23,1539291993
Yarim,YE,2018-10-11,45.28,46,1.36,0,14.3,44.38,1539291994
Vega de Alatorre,MX,2018-10-11,78.22,96,3.94,68,20.03,-96.65,1539291759
Hobyo,SO,2018-10-11,77.59,84,20.04,8,5.35,48.53,1539291994
Qianguo,CN,2018-10-11,34.3,90,7.96,0,45.12,124.86,1539291994
Byron Bay,AU,2018-10-11,60.8,87,12.75,90,-28.65,153.62,1539289800
Kibala,TD,2018-10-11,80.6,74,13.87,20,9.11,18.35,1539288000
Udachnyy,RU,2018-10-11,24.85,79,3.49,68,66.42,112.4,1539291995
Kargasok,RU,2018-10-11,49.96,59,11.77,92,59.06,80.87,1539291995
Bud,NO,2018-10-11,64.4,62,11.41,0,62.91,6.91,1539291000
Aksarka,RU,2018-10-11,32.23,88,15.12,92,66.56,67.8,1539291996
Gillette,US,2018-10-11,41.0,12,8.05,1,44.29,-105.5,1539287580
Nampula,MZ,2018-10-11,75.2,73,10.29,0,-15.12,39.26,1539288000
Kumla,SE,2018-10-11,50.0,100,5.82,90,59.13,15.14,1539289200
Constitucion,MX,2018-10-11,77.0,17,8.05,75,23.99,-104.67,1539287040
Yarega,RU,2018-10-11,34.75,78,7.96,80,63.43,53.58,1539291998
Flin Flon,CA,2018-10-11,35.6,43,4.7,5,54.77,-101.88,1539288000
Newport,GB,2018-10-11,57.2,93,6.93,75,51.59,-3.0,1539291000
Nizhnedevitsk,RU,2018-10-11,46.4,77,6.71,0,51.55,38.36,1539289800
Mugumu,TZ,2018-10-11,61.93,93,1.36,92,-1.84,34.67,1539291999
San Cristobal,EC,2018-10-11,66.2,48,12.75,75,-0.39,-78.55,1539288000
Uglovskoye,RU,2018-10-11,43.48,65,10.76,0,51.36,80.19,1539291999
Elesbao Veloso,BR,2018-10-11,93.7,27,5.73,8,-6.2,-42.14,1539291702
Kuusamo,FI,2018-10-11,41.0,100,3.36,90,65.96,29.19,1539291000
Don Sak,TH,2018-10-11,81.46,100,5.73,76,9.32,99.69,1539292000
Poum,MK,2018-10-11,39.34,86,1.14,0,41.28,20.71,1539292000
Gorontalo,ID,2018-10-11,72.46,94,1.59,20,0.54,123.06,1539292000
Okha,RU,2018-10-11,33.4,94,3.94,44,53.59,142.95,1539292001
Shenjiamen,CN,2018-10-11,68.14,91,15.23,88,29.96,122.3,1539292001
Skibotn,NO,2018-10-11,44.6,87,2.24,75,69.39,20.27,1539291000
Shalya,RU,2018-10-11,36.1,81,13.11,76,57.25,58.73,1539292002
Sisimiut,GL,2018-10-11,11.44,100,1.7,0,66.94,-53.67,1539292002
Ciudad Bolivar,VE,2018-10-11,81.55,80,7.07,36,8.12,-63.55,1539292002
Calama,CL,2018-10-11,71.6,14,20.8,0,-22.46,-68.93,1539288000
Kamenka,RU,2018-10-11,39.25,80,9.53,0,53.19,44.05,1539292003
Pombas,BR,2018-10-11,80.56,94,2.59,20,-15.9,-54.74,1539292003
Galesong,ID,2018-10-11,73.4,73,4.7,90,-5.32,119.37,1539289800
Mehamn,NO,2018-10-11,42.8,75,12.75,40,71.03,27.85,1539291000
Kaeo,NZ,2018-10-11,58.69,79,23.29,48,-35.1,173.78,1539292004
Lixourion,GR,2018-10-11,64.4,82,8.19,20,38.2,20.43,1539287400
Komsomolskiy,RU,2018-10-11,26.83,83,15.12,24,67.55,63.78,1539292005
Chapais,CA,2018-10-11,37.4,93,13.87,90,49.78,-74.86,1539288000
Monrovia,LR,2018-10-11,77.0,94,6.93,40,6.33,-10.8,1539288000
Te Anau,NZ,2018-10-11,34.93,89,10.54,88,-45.41,167.72,1539291898
Panama City,US,2018-10-11,79.93,100,14.12,0,30.16,-85.65,1539292006
San Ramon,NI,2018-10-11,80.6,61,1.36,75,12.92,-85.84,1539288000
Carauari,BR,2018-10-11,96.85,37,4.16,32,-4.88,-66.9,1539292006
Sayyan,YE,2018-10-11,46.27,50,3.15,0,15.17,44.32,1539292007
Waverly,US,2018-10-11,80.96,88,9.17,90,37.04,-77.1,1539289500
Puerto Quijarro,BO,2018-10-11,89.6,66,8.05,75,-19.0,-57.72,1539288000
Kosa,RU,2018-10-11,35.02,68,14.45,64,59.94,54.99,1539292008
Gold Coast,AU,2018-10-11,60.8,87,12.75,90,-28.0,153.41,1539289800
Biu,NG,2018-10-11,77.05,55,2.04,24,10.61,12.19,1539292008
Vestmannaeyjar,IS,2018-10-11,48.07,92,26.87,44,63.44,-20.27,1539292009
Camopi,GF,2018-10-11,86.41,51,4.05,36,3.17,-52.33,1539292009
Rawson,AR,2018-10-11,67.15,24,18.14,80,-43.3,-65.11,1539292009
Manggar,ID,2018-10-11,75.7,100,2.59,64,-2.88,108.27,1539292009
Svetlogorsk,RU,2018-10-11,35.6,80,11.18,20,53.14,59.15,1539289800
Gamboma,CG,2018-10-11,74.08,85,4.94,56,-1.87,15.88,1539292010
Tabou,CI,2018-10-11,78.13,100,9.75,80,4.42,-7.36,1539292011
Kedrovyy,RU,2018-10-11,23.0,100,4.5,0,56.17,91.82,1539289800
Golpayegan,IR,2018-10-11,51.31,60,2.37,76,33.46,50.29,1539292012
