City,Country,Date (YYYY-MM-DD),Max Temperature,Humidity,Wind Speed,Cloudiness,Latitude,Longitude,UNIX Timestamp
Leningradskiy,RU,2018-10-12,35.51,98,13.22,80,69.38,178.42,1539315256
Mahebourg,MU,2018-10-12,73.4,64,16.11,40,-20.41,57.7,1539313200
Mar del Plata,AR,2018-10-12,48.38,51,13.0,0,-46.43,-67.52,1539315313
Albany,US,2018-10-12,66.02,86,10.29,90,42.65,-73.75,1539314220
Xai-Xai,MZ,2018-10-12,72.36,93,11.99,0,-25.04,33.64,1539315424
Kankan,GN,2018-10-12,68.49,99,3.49,92,10.38,-9.3,1539315424
Punta Arenas,CL,2018-10-12,44.6,70,17.22,0,-53.16,-70.91,1539313200
Rikitea,PF,2018-10-12,70.92,100,13.22,92,-23.12,-134.97,1539315353
Guerrero Negro,MX,2018-10-12,67.86,92,6.73,92,27.97,-114.04,1539315425
Mulanje,MW,2018-10-12,59.31,89,2.59,0,-16.03,35.5,1539315425
Wanaka,NZ,2018-10-12,34.11,72,8.41,88,-44.7,169.14,1539315240
Hinton,CA,2018-10-12,35.82,72,2.82,76,53.4,-117.57,1539315426
Busselton,AU,2018-10-12,62.73,100,12.44,92,-33.64,115.35,1539315351
Rohri,PK,2018-10-12,71.78,34,2.82,0,27.68,68.91,1539315426
Ushuaia,AR,2018-10-12,46.4,52,5.82,75,-54.81,-68.31,1539313200
Kahului,US,2018-10-12,82.04,69,14.99,40,20.89,-156.47,1539313560
Lagoa,PT,2018-10-12,68.0,94,2.24,75,37.14,-8.45,1539313200
Butaritari,KI,2018-10-12,83.43,100,7.74,44,3.07,172.79,1539315427
Qaanaaq,GL,2018-10-12,22.5,100,10.42,64,77.48,-69.36,1539315201
Totma,RU,2018-10-12,28.62,89,8.75,8,59.98,42.76,1539315428
Carutapera,BR,2018-10-12,80.28,83,10.87,68,-1.2,-46.02,1539315247
Hobart,AU,2018-10-12,59.0,58,8.05,40,-42.88,147.33,1539313200
Hermanus,ZA,2018-10-12,51.98,90,6.29,44,-34.42,19.24,1539315429
Castro,CL,2018-10-12,35.55,100,2.93,20,-42.48,-73.76,1539315343
Mataura,NZ,2018-10-12,43.7,67,19.04,92,-46.19,168.86,1539315343
Bathsheba,BB,2018-10-12,82.4,78,9.17,40,13.22,-59.52,1539313200
Kapaa,US,2018-10-12,82.04,76,9.17,90,22.08,-159.32,1539312960
Saskylakh,RU,2018-10-12,26.82,96,4.61,64,71.97,114.09,1539315430
Pinehurst,US,2018-10-12,75.02,69,8.05,1,35.19,-79.47,1539314700
Lavrentiya,RU,2018-10-12,42.93,100,19.15,88,65.58,-170.99,1539315431
Ribeira Grande,PT,2018-10-12,69.3,100,31.9,92,38.52,-28.7,1539315431
Khvorostyanka,RU,2018-10-12,40.77,65,14.67,68,52.62,48.95,1539315431
Teguise,ES,2018-10-12,69.8,83,5.82,0,29.06,-13.56,1539313200
Coquimbo,CL,2018-10-12,50.0,81,6.51,0,-29.95,-71.34,1539313200
Nikolskoye,RU,2018-10-12,42.8,100,6.71,90,59.7,30.79,1539313200
Upernavik,GL,2018-10-12,25.11,100,11.99,0,72.79,-56.15,1539315432
Rosetown,CA,2018-10-12,25.43,85,8.41,24,51.55,-107.99,1539315432
Port Lincoln,AU,2018-10-12,66.33,78,14.12,0,-34.72,135.86,1539315179
Jamestown,AU,2018-10-12,72.45,44,5.5,0,-33.21,138.6,1539314930
Cidreira,BR,2018-10-12,63.95,76,17.58,68,-30.17,-50.22,1539315433
Atuona,PF,2018-10-12,79.92,100,18.03,76,-9.8,-139.03,1539315433
Grand Gaube,MU,2018-10-12,73.4,64,16.11,40,-20.01,57.66,1539313200
Suez,EG,2018-10-12,58.05,91,2.59,0,29.97,32.54,1539315434
Kodiak,US,2018-10-12,42.08,92,2.93,75,39.95,-94.76,1539312780
Salinas,US,2018-10-12,60.98,72,4.7,1,36.67,-121.66,1539312900
Longyearbyen,NO,2018-10-12,33.8,69,23.04,75,78.22,15.63,1539312600
Souillac,FR,2018-10-12,62.6,93,4.7,0,45.6,-0.6,1539313200
Ahuimanu,US,2018-10-12,80.96,93,9.17,90,21.44,-157.84,1539313020
Keti Bandar,PK,2018-10-12,81.81,100,4.72,24,24.14,67.45,1539315436
Aleysk,RU,2018-10-12,49.68,46,14.9,0,52.5,82.77,1539315436
Matagami,NG,2018-10-12,64.98,92,3.15,44,9.67,8.4,1539315436
Cape Town,ZA,2018-10-12,57.2,71,17.22,40,-33.93,18.42,1539313200
Makakilo City,US,2018-10-12,80.96,69,8.05,90,21.35,-158.09,1539313020
Chokurdakh,RU,2018-10-12,23.18,93,3.71,80,70.62,147.9,1539315437
Ternate,PH,2018-10-12,87.8,79,6.93,40,14.29,120.72,1539313200
Saint-Hubert,BE,2018-10-12,60.8,82,10.29,0,50.03,5.37,1539314400
Itanhem,BR,2018-10-12,71.46,87,8.3,24,-17.17,-40.33,1539315438
Thompson,CA,2018-10-12,19.4,67,2.24,5,55.74,-97.86,1539313200
Sao Joao da Barra,BR,2018-10-12,74.7,100,2.71,76,-21.64,-41.05,1539315235
Fernley,US,2018-10-12,55.04,45,5.82,1,39.61,-119.25,1539314100
Tiksi,RU,2018-10-12,29.21,98,3.94,44,71.64,128.87,1539315439
Yellowknife,CA,2018-10-12,30.2,86,9.17,90,62.45,-114.38,1539313980
Provideniya,RU,2018-10-12,42.8,87,17.9,75,64.42,-173.23,1539313200
Mezhdurechensk,RU,2018-10-12,38.88,75,3.15,0,53.69,88.07,1539315440
Bluff,AU,2018-10-12,79.11,59,10.42,92,-23.58,149.07,1539315440
Richards Bay,ZA,2018-10-12,68.58,86,14.56,80,-28.77,32.06,1539315440
Kolno,PL,2018-10-12,46.17,91,9.64,0,53.41,21.93,1539315441
Hilo,US,2018-10-12,80.06,69,3.36,90,19.71,-155.08,1539312780
Fershampenuaz,RU,2018-10-12,31.5,81,11.32,0,53.52,59.82,1539315441
Wanning,AT,2018-10-12,46.4,81,2.24,88,48.64,13.53,1539312600
Ures,MX,2018-10-12,74.88,68,11.99,88,30.73,-112.95,1539315442
Upata,VE,2018-10-12,74.21,84,6.51,24,8.02,-62.41,1539315442
Maldonado,UY,2018-10-12,51.8,71,14.99,90,-34.91,-54.96,1539313200
Kyren,RU,2018-10-12,34.29,94,2.59,92,51.68,102.13,1539315443
Ponta do Sol,BR,2018-10-12,72.99,64,10.65,24,-20.63,-46.0,1539315443
Oistins,BB,2018-10-12,82.4,78,9.17,40,13.07,-59.53,1539313200
Puerto Ayora,EC,2018-10-12,70.29,100,12.88,0,-0.74,-90.35,1539315444
Deputatskiy,RU,2018-10-12,18.0,90,3.49,44,69.3,139.9,1539315444
Zhangjiakou,CN,2018-10-12,50.45,49,3.83,0,40.77,114.88,1539315444
Henties Bay,NA,2018-10-12,57.42,100,6.62,92,-22.12,14.28,1539315444
Xiaoweizhai,CN,2018-10-12,56.52,72,3.38,76,26.23,107.51,1539315445
Malinalco,MX,2018-10-12,62.6,87,3.36,75,18.95,-99.5,1539313020
Angoche,MZ,2018-10-12,76.91,100,6.4,0,-16.23,39.91,1539315445
Sao Filipe,CV,2018-10-12,79.7,95,10.31,0,14.9,-24.5,1539315446
Bredasdorp,ZA,2018-10-12,57.2,67,8.05,92,-34.53,20.04,1539313200
Venado,MX,2018-10-12,65.21,70,9.19,8,22.93,-101.09,1539315446
Saint-Philippe,CA,2018-10-12,50.72,100,5.82,90,45.36,-73.48,1539314040
Port Alfred,ZA,2018-10-12,62.28,100,12.1,92,-33.59,26.89,1539315186
Bandarbeyla,SO,2018-10-12,75.24,94,9.64,0,9.49,50.81,1539315275
Cessnock,AU,2018-10-12,64.4,59,19.46,75,-32.83,151.35,1539313200
Chara,GR,2018-10-12,59.0,72,6.93,20,39.42,22.43,1539312600
Plettenberg Bay,ZA,2018-10-12,59.67,100,12.66,100,-34.05,23.37,1539315448
Kirkenaer,NO,2018-10-12,39.33,95,2.93,0,60.46,12.06,1539315448
Nouadhibou,MR,2018-10-12,73.4,78,19.46,20,20.93,-17.03,1539313200
Namatanai,PG,2018-10-12,84.87,98,7.74,24,-3.66,152.44,1539315449
Port Hedland,AU,2018-10-12,93.2,41,14.99,0,-20.31,118.58,1539313200
La Ronge,CA,2018-10-12,30.2,80,4.7,40,55.1,-105.3,1539313200
Kendari,ID,2018-10-12,90.18,53,3.71,0,-3.99,122.52,1539315450
Cherskiy,RU,2018-10-12,26.64,96,2.04,48,68.75,161.3,1539315450
Ixtapa,MX,2018-10-12,82.4,74,3.36,75,20.71,-105.21,1539312420
Rincon,US,2018-10-12,78.98,69,6.93,1,32.3,-81.24,1539314100
Kalga,RU,2018-10-12,54.68,44,3.49,0,50.92,118.9,1539315451
Alyangula,AU,2018-10-12,88.25,76,13.0,0,-13.85,136.42,1539315282
Carnarvon,ZA,2018-10-12,56.48,43,8.75,92,-30.97,22.13,1539315451
Belem de Sao Francisco,BR,2018-10-12,76.73,59,15.68,0,-8.75,-38.97,1539315452
Esperance,TT,2018-10-12,78.8,88,5.61,20,10.24,-61.45,1539313200
Constitucion,MX,2018-10-12,62.6,36,10.29,40,23.99,-104.67,1539312180
Mount Gambier,AU,2018-10-12,68.81,66,6.73,0,-37.83,140.78,1539315452
Bethel,US,2018-10-12,46.04,82,12.75,90,60.79,-161.76,1539312780
Nyurba,RU,2018-10-12,39.15,100,5.39,92,63.29,118.35,1539315453
Omboue,GA,2018-10-12,77.49,100,8.08,88,-1.57,9.26,1539315453
Saldanha,PT,2018-10-12,51.39,95,6.51,24,41.42,-6.55,1539315231
Tasiilaq,GL,2018-10-12,32.0,100,3.36,92,65.61,-37.64,1539312600
Hasaki,JP,2018-10-12,68.0,88,8.05,75,35.73,140.83,1539314280
Oyama,JP,2018-10-12,66.2,77,8.05,75,36.31,139.8,1539313200
Hithadhoo,MV,2018-10-12,84.15,98,4.72,48,-0.6,73.08,1539315455
PEMEX,MX,2018-10-12,71.19,99,3.49,88,18.44,-96.35,1539315455
Flinders,AU,2018-10-12,60.8,67,14.99,75,-34.58,150.85,1539313200
Conselheiro Pena,BR,2018-10-12,71.64,83,5.28,8,-19.17,-41.47,1539315456
Winnemucca,US,2018-10-12,48.92,9,5.82,1,40.97,-117.74,1539312960
Tomatlan,MX,2018-10-12,71.19,82,2.71,0,19.93,-105.25,1539315456
Puerto Leguizamo,CO,2018-10-12,75.15,92,2.59,64,-0.19,-74.78,1539315456
Cassilandia,BR,2018-10-12,70.88,94,2.93,76,-19.11,-51.73,1539315181
Khatanga,RU,2018-10-12,24.35,84,14.56,0,71.98,102.47,1539315352
Klaksvik,FO,2018-10-12,48.2,100,6.93,32,62.23,-6.59,1539314400
Pombia,IT,2018-10-12,59.0,93,5.82,75,45.65,8.63,1539312600
Arraial do Cabo,BR,2018-10-12,73.17,98,4.5,92,-22.97,-42.02,1539315457
Fort-Shevchenko,KZ,2018-10-12,56.07,100,13.44,0,44.51,50.26,1539315457
Mount Isa,AU,2018-10-12,89.6,18,8.05,44,-20.73,139.49,1539313200
Palmer,AU,2018-10-12,75.2,27,13.87,0,-34.85,139.16,1539313200
Santiago del Estero,AR,2018-10-12,54.36,100,12.21,100,-27.8,-64.26,1539315458
Nortelandia,BR,2018-10-12,72.09,96,2.37,20,-14.45,-56.8,1539315458
Aragarcas,BR,2018-10-12,71.96,91,3.15,12,-15.9,-52.25,1539315459
Bukachacha,RU,2018-10-12,51.75,47,3.38,0,52.99,116.91,1539315459
Rio Gallegos,AR,2018-10-12,44.6,56,8.05,0,-51.62,-69.22,1539313200
Baruun-Urt,MN,2018-10-12,50.0,36,14.45,0,46.68,113.28,1539315460
Mezen,RU,2018-10-12,38.88,94,10.54,88,65.85,44.24,1539315460
Qaqortoq,GL,2018-10-12,24.8,58,2.24,40,60.72,-46.03,1539312600
Vaini,IN,2018-10-12,79.88,58,2.71,0,15.34,74.49,1539315352
Saint George,GR,2018-10-12,59.0,72,6.93,20,39.45,22.34,1539312600
Norman Wells,CA,2018-10-12,28.4,79,4.7,75,65.28,-126.83,1539313200
Dickinson,US,2018-10-12,33.08,18,5.82,90,46.88,-102.79,1539312960
Geraldton,CA,2018-10-12,28.4,92,9.17,90,49.72,-86.95,1539313200
Dikson,RU,2018-10-12,32.0,100,20.83,80,73.51,80.55,1539315351
Pevek,RU,2018-10-12,33.8,100,5.95,0,69.7,170.27,1539315462
Vila Franca do Campo,PT,2018-10-12,71.6,88,25.28,75,37.72,-25.43,1539313200
Shingu,JP,2018-10-12,66.2,55,17.22,75,33.72,135.99,1539309600
Imbituba,BR,2018-10-12,68.0,68,6.93,75,-28.24,-48.67,1539313200
Santa Rosa,AR,2018-10-12,54.18,68,12.88,48,-36.62,-64.29,1539315464
Kloulklubed,PW,2018-10-12,89.6,66,6.93,75,7.04,134.26,1539312600
Pisco,PE,2018-10-12,64.4,88,16.11,90,-13.71,-76.2,1539313200
East London,ZA,2018-10-12,62.6,67,9.17,40,-33.02,27.91,1539313200
Palafrugell,ES,2018-10-12,59.0,100,1.12,20,41.92,3.16,1539313200
Pierre,US,2018-10-12,37.94,78,3.36,90,44.37,-100.35,1539312780
Kalmunai,LK,2018-10-12,79.02,93,8.63,68,7.42,81.82,1539315466
Nanortalik,GL,2018-10-12,33.98,95,28.88,20,60.14,-45.24,1539315209
Poum,MK,2018-10-12,36.18,87,2.59,0,41.28,20.71,1539315466
Zhoucheng,CN,2018-10-12,67.68,56,6.4,0,31.35,119.33,1539315466
Touros,BR,2018-10-12,75.65,93,14.34,88,-5.2,-35.46,1539314944
Tuatapere,NZ,2018-10-12,44.01,100,19.15,88,-46.13,167.69,1539315270
New Norfolk,AU,2018-10-12,59.0,58,8.05,40,-42.78,147.06,1539313200
San Patricio,PY,2018-10-12,71.51,96,3.71,80,-26.98,-56.83,1539315468
Arroyo,US,2018-10-12,53.96,74,9.17,90,41.39,-78.88,1539313440
Banjar,ID,2018-10-12,85.73,56,3.71,12,-7.37,108.54,1539315468
Namibe,AO,2018-10-12,68.18,100,7.74,68,-15.19,12.15,1539315469
Tuktoyaktuk,CA,2018-10-12,23.0,92,9.17,90,69.44,-133.03,1539313200
Bambous Virieux,MU,2018-10-12,73.4,64,16.11,40,-20.34,57.76,1539313200
Jasrana,IN,2018-10-12,80.28,66,5.73,0,27.24,78.65,1539315470
Te Anau,NZ,2018-10-12,35.19,89,11.1,88,-45.41,167.72,1539315249
Tessalit,ML,2018-10-12,68.76,34,9.64,0,20.2,1.01,1539315470
Sampit,ID,2018-10-12,86.36,85,4.38,20,-2.54,112.95,1539315471
Avera,US,2018-10-12,73.04,67,9.17,1,33.19,-82.53,1539312900
Dingle,PH,2018-10-12,86.18,71,10.65,24,11.0,122.67,1539315158
Luderitz,NA,2018-10-12,62.6,55,28.86,64,-26.65,15.16,1539313200
Torbay,CA,2018-10-12,35.6,69,8.05,90,47.66,-52.73,1539313200
Lisakovsk,KZ,2018-10-12,34.65,84,10.98,56,52.55,62.49,1539315472
Saint Anthony,US,2018-10-12,42.98,12,5.17,20,43.97,-111.68,1539312960
Matara,PE,2018-10-12,44.73,95,1.92,56,-13.74,-72.9,1539315473
Bilibino,RU,2018-10-12,22.14,77,3.04,12,68.06,166.44,1539315473
Hyeres,FR,2018-10-12,64.4,88,5.82,75,43.12,6.14,1539313200
Alofi,NU,2018-10-12,80.6,83,13.87,75,-19.06,-169.92,1539313200
Coffs Harbour,AU,2018-10-12,60.8,87,11.41,75,-30.3,153.13,1539313200
Garoua,CM,2018-10-12,78.8,88,4.7,0,9.31,13.39,1539313200
Broken Hill,AU,2018-10-12,71.91,59,9.53,48,-31.97,141.45,1539315475
Ostrovnoy,RU,2018-10-12,28.26,89,11.43,12,68.05,39.51,1539315163
Port-Gentil,GA,2018-10-12,77.36,100,6.17,80,-0.72,8.78,1539315475
Cairns,AU,2018-10-12,84.2,58,11.41,0,-16.92,145.77,1539313200
Horodkivka,UA,2018-10-12,42.26,87,5.73,44,49.91,28.98,1539315476
Ambilobe,MG,2018-10-12,73.53,67,15.12,0,-13.19,49.05,1539315476
Terrace Bay,CA,2018-10-12,37.76,100,18.81,88,48.78,-87.1,1539315476
San Luis,AR,2018-10-12,59.94,61,6.4,80,-33.3,-66.34,1539315477
Shchebetovka,UA,2018-10-12,58.68,100,14.0,0,44.94,35.16,1539315477
Sitka,US,2018-10-12,47.66,83,10.65,92,37.17,-99.65,1539315478
Chicama,PE,2018-10-12,66.2,82,9.17,90,-7.84,-79.15,1539313200
Caravelas,BR,2018-10-12,77.49,100,17.25,36,-17.73,-39.27,1539315278
Fortuna,ES,2018-10-12,64.4,93,4.7,0,38.18,-1.13,1539313200
Hofn,IS,2018-10-12,46.76,97,14.12,32,64.25,-15.21,1539315478
Kardamaina,GR,2018-10-12,66.2,77,12.75,20,36.78,27.14,1539312600
Vardo,US,2018-10-12,69.8,70,14.99,90,39.62,-77.74,1539313500
Marquette,US,2018-10-12,35.96,89,8.05,80,46.54,-87.4,1539312960
Dongsheng,CN,2018-10-12,70.7,57,8.86,12,29.72,112.52,1539315479
Avarua,CK,2018-10-12,78.8,65,16.11,75,-21.21,-159.78,1539313200
Dunmore Town,BS,2018-10-12,82.89,100,11.99,32,25.5,-76.65,1539315480
Launceston,AU,2018-10-12,59.0,58,6.93,90,-41.43,147.14,1539313200
Erzin,TR,2018-10-12,66.2,72,2.71,40,36.95,36.2,1539312600
Lebu,ET,2018-10-12,39.78,79,3.6,0,8.96,38.73,1539315193
Telimele,GN,2018-10-12,72.27,100,2.93,68,10.9,-13.03,1539315481
Kasamwa,TZ,2018-10-12,58.91,95,2.59,24,-2.84,32.42,1539315481
Aklavik,CA,2018-10-12,24.8,92,6.93,90,68.22,-135.01,1539313200
Linjiang,CN,2018-10-12,45.81,79,3.49,0,41.81,126.91,1539315481
Codrington,AU,2018-10-12,61.83,95,6.4,92,-28.95,153.24,1539315482
Kontagora,NG,2018-10-12,72.63,88,2.82,20,10.4,5.47,1539315482
Severo-Kurilsk,RU,2018-10-12,48.78,95,13.78,92,50.68,156.12,1539315226
Iqaluit,CA,2018-10-12,14.0,85,8.05,20,63.75,-68.52,1539313200
Riyadh,SA,2018-10-12,69.8,40,2.24,5,24.63,46.72,1539313200
Barrow,AR,2018-10-12,51.26,47,6.85,92,-38.31,-60.23,1539315483
Taoudenni,ML,2018-10-12,77.18,33,9.86,0,22.68,-3.98,1539315483
Troitskoye,RU,2018-10-12,49.77,49,7.18,0,52.98,84.68,1539315483
Baillif,GP,2018-10-12,77.0,94,4.7,20,16.02,-61.75,1539313200
Mogzon,RU,2018-10-12,49.23,58,3.83,12,51.74,111.97,1539315484
Bogdanovich,RU,2018-10-12,35.1,94,9.64,92,56.77,62.05,1539315484
Alampur,IN,2018-10-12,84.33,40,4.38,0,15.88,78.14,1539315485
Port Elizabeth,US,2018-10-12,75.92,96,11.41,90,39.31,-74.98,1539314700
The Valley,AI,2018-10-12,82.4,78,9.17,20,18.22,-63.06,1539313200
Mizdah,LY,2018-10-12,61.74,90,4.61,64,31.45,12.98,1539315179
Victoria,BN,2018-10-12,87.8,74,3.36,75,5.28,115.24,1539313200
Mehran,IR,2018-10-12,64.4,27,7.85,0,33.12,46.17,1539313200
Vestmanna,FO,2018-10-12,48.2,100,9.17,36,62.16,-7.17,1539312600
Clyde River,CA,2018-10-12,15.8,85,6.17,75,70.47,-68.59,1539313200
Pangnirtung,CA,2018-10-12,14.31,100,11.65,0,66.15,-65.72,1539315487
Mayumba,GA,2018-10-12,76.05,99,5.17,88,-3.44,10.65,1539315212
Mgachi,RU,2018-10-12,47.97,91,4.72,0,51.05,142.27,1539315487
Iracoubo,GF,2018-10-12,78.35,80,6.73,8,5.48,-53.21,1539315487
Honningsvag,NO,2018-10-12,41.0,93,4.7,75,70.98,25.97,1539314400
Pacific Grove,US,2018-10-12,60.98,75,3.6,1,36.62,-121.92,1539312900
Goksun,TR,2018-10-12,57.2,76,6.93,0,38.02,36.5,1539312600
Ancud,CL,2018-10-12,39.96,84,2.71,24,-41.87,-73.83,1539315203
Okhotsk,RU,2018-10-12,38.66,92,5.17,0,59.36,143.24,1539315489
Oktyabrskiy,RU,2018-10-12,35.6,84,2.24,0,55.61,37.97,1539313200
Nagorsk,RU,2018-10-12,29.43,85,13.0,0,59.32,50.8,1539315489
Redencao,BR,2018-10-12,74.48,95,1.92,24,-8.35,-72.75,1539315489
Oulu,FI,2018-10-12,50.0,93,5.82,100,65.01,25.47,1539314400
San Cristobal,EC,2018-10-12,50.0,76,8.05,40,-0.39,-78.55,1539313200
Turayf,SA,2018-10-12,66.2,68,8.05,75,31.68,38.65,1539313200
Narsaq,GL,2018-10-12,24.8,58,2.24,40,60.91,-46.05,1539312600
Adrar,DZ,2018-10-12,69.8,37,5.82,0,27.87,-0.29,1539313200
Karasjok,NO,2018-10-12,32.0,78,2.24,8,69.47,25.52,1539312600
Qasigiannguit,GL,2018-10-12,14.0,51,1.12,0,68.82,-51.19,1539312600
Faanui,PF,2018-10-12,79.83,100,15.35,36,-16.48,-151.75,1539315491
Polovinnoye,RU,2018-10-12,35.1,94,11.32,68,54.79,65.99,1539315492
Zhigansk,RU,2018-10-12,31.1,88,3.27,80,66.77,123.37,1539315189
Caraballeda,VE,2018-10-12,78.8,78,5.17,20,10.61,-66.85,1539313200
Grand-Lahou,CI,2018-10-12,75.83,94,4.61,88,5.24,-5.0,1539315243
Morondava,MG,2018-10-12,72.18,99,3.71,20,-20.3,44.28,1539315493
Virginia Beach,US,2018-10-12,73.94,96,11.41,90,36.85,-75.98,1539314580
Miraflores,CO,2018-10-12,52.88,99,2.15,76,5.2,-73.14,1539315493
Ossora,RU,2018-10-12,43.25,95,4.27,56,59.24,163.07,1539315185
Rawson,AR,2018-10-12,57.6,37,19.26,0,-43.3,-65.11,1539315494
Lata,IN,2018-10-12,51.12,72,2.04,0,30.78,78.62,1539315494
Yar-Sale,RU,2018-10-12,32.31,100,16.91,88,66.83,70.83,1539315216
Beringovskiy,RU,2018-10-12,41.04,100,24.52,92,63.05,179.32,1539315495
Meulaboh,ID,2018-10-12,79.83,100,2.15,64,4.14,96.13,1539315198
Gulistan,UZ,2018-10-12,48.15,78,3.71,0,40.5,68.78,1539315495
Quesnel,CA,2018-10-12,44.6,65,11.41,90,52.98,-122.49,1539313200
Hambantota,LK,2018-10-12,77.63,100,4.94,80,6.12,81.12,1539315496
Kovdor,RU,2018-10-12,32.67,87,2.37,80,67.56,30.47,1539315496
Katangli,RU,2018-10-12,48.42,90,5.06,0,51.71,143.23,1539315496
Srednekolymsk,RU,2018-10-12,28.31,84,3.15,88,67.46,153.71,1539315497
Hovd,NO,2018-10-12,57.2,58,8.05,0,63.83,10.7,1539312600
Terrace,CA,2018-10-12,50.0,87,25.28,75,54.52,-128.61,1539312480
Viedma,AR,2018-10-12,54.45,40,12.21,88,-40.81,-62.99,1539315237
Talnakh,RU,2018-10-12,30.78,90,21.27,88,69.49,88.39,1539315498
Necochea,AR,2018-10-12,49.41,68,11.21,92,-38.55,-58.74,1539315498
Anzio,IT,2018-10-12,64.4,93,3.36,40,41.45,12.63,1539312900
Maltahohe,NA,2018-10-12,64.8,50,4.38,92,-24.83,16.98,1539315499
Muhos,FI,2018-10-12,50.0,93,5.82,100,64.81,26.0,1539314400
Isangel,VU,2018-10-12,76.73,99,8.63,8,-19.55,169.27,1539315215
Suntar,RU,2018-10-12,39.69,95,7.29,92,62.16,117.65,1539315500
Coihaique,CL,2018-10-12,41.0,65,1.12,0,-45.58,-72.07,1539313200
Rock Sound,BS,2018-10-12,83.3,100,11.43,64,24.9,-76.2,1539315500
Takoradi,GH,2018-10-12,76.55,100,6.62,64,4.89,-1.75,1539315287
Galich,RU,2018-10-12,30.83,93,8.75,8,58.38,42.35,1539315501
Paamiut,GL,2018-10-12,35.19,100,28.77,0,61.99,-49.67,1539315218
Skeldon,GY,2018-10-12,81.68,100,16.91,8,5.88,-57.13,1539315501
Clifton Springs,US,2018-10-12,57.02,71,6.93,90,42.96,-77.14,1539314760
Havre-Saint-Pierre,CA,2018-10-12,33.8,74,8.05,90,50.23,-63.6,1539313200
Paraiso,MX,2018-10-12,62.6,36,10.29,40,24.01,-104.61,1539312180
Grindavik,IS,2018-10-12,42.8,81,21.92,75,63.84,-22.43,1539313200
Jalu,LY,2018-10-12,60.48,69,6.4,0,29.03,21.55,1539315246
Labuhan,ID,2018-10-12,86.45,67,1.03,24,-2.54,115.51,1539315502
Belmonte,PT,2018-10-12,50.63,94,3.94,92,40.36,-7.35,1539315503
Benghazi,LY,2018-10-12,73.76,100,18.48,44,32.12,20.07,1539315503
Alexandria,US,2018-10-12,62.06,80,5.82,1,31.31,-92.44,1539312900
Lompoc,US,2018-10-12,62.96,75,3.36,90,34.64,-120.46,1539313080
Pedra Branca,BR,2018-10-12,75.15,63,11.43,0,-5.46,-39.72,1539315504
Ondjiva,AO,2018-10-12,60.53,27,7.74,0,-17.07,15.73,1539315504
Xinmin,CN,2018-10-12,60.8,44,4.47,0,42.0,122.83,1539313200
Westport,IE,2018-10-12,54.36,97,28.32,92,53.8,-9.52,1539315505
Tilichiki,RU,2018-10-12,41.63,77,4.16,8,60.47,166.1,1539315220
Rafai,CF,2018-10-12,69.8,98,5.39,92,4.95,23.92,1539315505
Dzhebariki-Khaya,RU,2018-10-12,26.06,74,3.38,76,62.22,135.8,1539315506
Shu,KZ,2018-10-12,49.59,65,6.62,0,43.6,73.76,1539315506
Presidencia Roque Saenz Pena,AR,2018-10-12,69.71,93,10.2,92,-26.79,-60.44,1539315506
Aras,YE,2018-10-12,40.32,59,3.6,0,14.28,44.38,1539315225
Luena,AO,2018-10-12,56.7,58,3.83,20,-11.78,19.91,1539315507
Naryan-Mar,RU,2018-10-12,36.18,100,28.77,88,67.67,53.09,1539315348
Saint-Leu,RE,2018-10-12,71.6,56,4.7,20,-21.15,55.28,1539313200
Kharhial,IN,2018-10-12,72.72,99,11.21,100,20.28,82.77,1539315508
Laguna,MX,2018-10-12,75.33,66,2.15,92,27.52,-110.01,1539315508
Agirish,RU,2018-10-12,30.65,66,9.31,36,61.92,63.02,1539315508
Georgetown,GY,2018-10-12,75.2,100,2.24,0,6.8,-58.16,1539313200
Buala,SB,2018-10-12,84.78,88,5.73,68,-8.15,159.59,1539315510
Santa Cruz,US,2018-10-12,64.4,77,3.36,1,36.97,-122.03,1539312960
Novikovo,UA,2018-10-12,49.59,100,6.85,0,45.05,34.56,1539315511
Kruisfontein,ZA,2018-10-12,59.85,100,12.44,100,-34.0,24.73,1539315512
Saint-Augustin,FR,2018-10-12,62.6,93,8.05,0,44.83,-0.61,1539315000
Teknaf,BD,2018-10-12,75.65,100,6.73,92,20.86,92.31,1539315512
Loukhi,RU,2018-10-12,39.69,100,4.94,68,66.08,33.04,1539315513
Fairbanks,US,2018-10-12,39.92,98,3.36,75,64.84,-147.72,1539313080
Qena,EG,2018-10-12,68.0,52,4.61,0,26.16,32.72,1539309600
Port Hawkesbury,CA,2018-10-12,39.2,100,13.87,90,45.62,-61.36,1539313200
Sorland,NO,2018-10-12,51.8,76,3.36,0,67.67,12.69,1539314400
Hamilton,CA,2018-10-12,53.6,66,17.22,90,43.26,-79.87,1539313200
Fukue,JP,2018-10-12,69.8,43,14.99,75,35.03,136.69,1539314640
Gidole,ET,2018-10-12,62.01,96,2.04,88,5.65,37.37,1539315514
Chuy,UY,2018-10-12,51.8,100,8.3,100,-33.69,-53.46,1539315198
Novoagansk,RU,2018-10-12,41.85,97,9.42,92,61.94,76.66,1539315515
Gushikawa,JP,2018-10-12,68.0,89,11.41,90,26.35,127.87,1539313200
Kaitangata,NZ,2018-10-12,43.38,68,21.83,92,-46.28,169.85,1539315281
Whitianga,NZ,2018-10-12,59.94,99,25.75,32,-36.83,175.7,1539315515
Los Llanos de Aridane,ES,2018-10-12,71.6,60,5.82,0,28.66,-17.92,1539315000
Kodinar,IN,2018-10-12,83.7,39,8.41,8,20.79,70.7,1539315516
Cabedelo,BR,2018-10-12,75.2,78,10.29,20,-6.97,-34.84,1539313200
Katsuura,JP,2018-10-12,62.6,55,3.36,75,33.93,134.5,1539313200
Panzhihua,CN,2018-10-12,58.28,90,2.15,92,26.59,101.72,1539315517
Kanker,IN,2018-10-12,72.63,100,11.77,92,20.27,81.49,1539315517
Klyuchi,RU,2018-10-12,47.21,51,14.79,24,52.25,79.17,1539315517
Cortez,US,2018-10-12,46.04,89,2.71,90,37.35,-108.58,1539312780
Bismarck,US,2018-10-12,27.05,83,2.93,12,46.81,-100.78,1539315518
Taloqan,AF,2018-10-12,42.8,47,2.82,0,36.74,69.54,1539315518
Isilkul,RU,2018-10-12,37.26,89,11.54,0,54.9,71.26,1539315518
Talaya,RU,2018-10-12,44.46,58,14.0,12,55.79,84.89,1539315519
Zhongshu,CN,2018-10-12,54.86,95,3.83,92,24.52,103.77,1539315519
Hedaru,TZ,2018-10-12,63.41,93,4.05,92,-4.5,37.91,1539315520
Adamantina,BR,2018-10-12,68.0,72,13.87,20,-21.69,-51.08,1539309600
College,US,2018-10-12,39.92,98,3.36,75,64.86,-147.8,1539313080
Bud,NO,2018-10-12,60.8,76,6.93,56,62.91,6.91,1539314400
Vanimo,PG,2018-10-12,83.88,100,11.65,36,-2.67,141.3,1539315520
Ust-Kan,RU,2018-10-12,32.67,66,3.15,0,50.93,84.77,1539315521
Santa Vitoria do Palmar,BR,2018-10-12,51.8,100,8.3,100,-33.52,-53.37,1539315521
Cabo San Lucas,MX,2018-10-12,77.0,78,9.19,5,22.89,-109.91,1539312360
Hirara,JP,2018-10-12,71.6,100,17.22,75,24.8,125.28,1539313200
Sola,NO,2018-10-12,62.6,59,19.46,0,58.89,5.65,1539314400
Mbekenyera,TZ,2018-10-12,68.94,94,2.37,92,-10.0,38.98,1539315522
Mungwi,ZM,2018-10-12,67.91,57,5.28,36,-10.17,31.37,1539315522
Luba,PH,2018-10-12,84.24,73,3.38,0,17.32,120.7,1539315523
Lobito,AO,2018-10-12,62.01,94,2.82,24,-12.35,13.55,1539315523
Paranaiba,BR,2018-10-12,72.99,91,2.71,0,-19.68,-51.19,1539315523
Kabelvag,NO,2018-10-12,51.8,76,3.36,0,68.21,14.48,1539314400
Navirai,BR,2018-10-12,71.19,85,12.66,32,-23.07,-54.19,1539315524
Sydney,AU,2018-10-12,62.6,67,19.46,75,-33.85,151.22,1539313200
Chapais,CA,2018-10-12,39.2,100,9.17,90,49.78,-74.86,1539313500
Liwale,TZ,2018-10-12,66.2,95,2.82,20,-9.8,37.92,1539315524
Rapid Valley,US,2018-10-12,37.04,100,6.93,90,44.06,-103.15,1539312960
Rafsanjan,IR,2018-10-12,45.36,58,2.93,0,30.4,55.99,1539315525
Stuttgart,DE,2018-10-12,53.6,93,1.12,0,48.78,9.18,1539314400
Boulsa,BF,2018-10-12,71.82,90,2.93,0,12.66,-0.57,1539315525
Port Macquarie,AU,2018-10-12,59.0,87,10.29,90,-31.43,152.91,1539313200
Bemidji,US,2018-10-12,24.8,79,3.36,90,47.48,-94.89,1539314100
Samarai,PG,2018-10-12,79.47,100,12.66,68,-10.62,150.67,1539315232
Jatiroto,ID,2018-10-12,88.7,65,3.38,12,-6.89,111.01,1539315526
Kletskaya,RU,2018-10-12,36.81,84,7.74,0,49.31,43.06,1539315432
Kirakira,SB,2018-10-12,82.62,100,15.79,68,-10.46,161.92,1539315175
Polillo,PH,2018-10-12,87.8,62,11.41,75,15.46,120.92,1539313200
Kodinsk,RU,2018-10-12,37.8,58,3.49,20,58.6,99.18,1539315527
Ahipara,NZ,2018-10-12,59.0,84,24.07,80,-35.17,173.16,1539315527
Bhimunipatnam,IN,2018-10-12,77.4,98,3.83,80,17.88,83.43,1539315528
Enid,US,2018-10-12,53.6,76,5.82,40,36.4,-97.88,1539314100
Rio Branco,BR,2018-10-12,73.4,100,2.24,40,-9.98,-67.82,1539313200
Kizner,RU,2018-10-12,34.61,74,10.2,44,56.27,51.51,1539315529
Komsomolskiy,RU,2018-10-12,31.77,96,17.25,92,67.55,63.78,1539315529
Maniitsoq,GL,2018-10-12,18.81,100,6.62,0,65.42,-52.9,1539315530
Goundam,ML,2018-10-12,73.8,48,3.94,0,16.42,-3.66,1539315530
Cayenne,GF,2018-10-12,77.0,100,2.24,0,4.94,-52.33,1539313200
Ballina,IE,2018-10-12,54.09,95,35.03,92,54.11,-9.15,1539315531
Port Blair,IN,2018-10-12,82.85,100,9.31,64,11.67,92.75,1539315531
Tuapse,RU,2018-10-12,58.01,71,6.4,0,44.1,39.07,1539315331
Auki,NG,2018-10-12,72.27,80,3.27,64,12.18,6.51,1539315532
Babu,CN,2018-10-12,58.77,96,3.15,92,23.23,104.89,1539315533
Nhulunbuy,AU,2018-10-12,89.6,40,12.75,20,-12.18,136.78,1539313200
Djenne,ML,2018-10-12,76.95,80,1.59,12,13.91,-4.55,1539315533
Turukhansk,RU,2018-10-12,33.48,91,23.4,92,65.8,87.96,1539315534
Simao,CN,2018-10-12,62.96,100,2.71,92,22.76,100.79,1539315534
Okha,RU,2018-10-12,48.87,78,9.42,64,53.59,142.95,1539315534
Birao,CF,2018-10-12,71.96,83,3.27,44,10.3,22.78,1539315534
Jagdalpur,IN,2018-10-12,72.5,100,10.42,92,19.09,82.02,1539315535
Tefe,BR,2018-10-12,77.94,92,2.59,56,-3.35,-64.71,1539315535
Portland,US,2018-10-12,60.98,59,3.36,1,45.52,-122.67,1539312960
Atar,MR,2018-10-12,75.24,44,4.16,48,20.52,-13.05,1539315535
Sobolevo,RU,2018-10-12,32.85,78,2.82,0,54.43,31.9,1539315245
Asuncion,PY,2018-10-12,77.0,83,4.7,75,-25.3,-57.63,1539313200
La Asuncion,EC,2018-10-12,46.53,97,1.48,80,-1.64,-78.74,1539315536
Ahualulco,MX,2018-10-12,64.4,77,6.93,40,22.4,-101.17,1539312300
Salalah,OM,2018-10-12,84.2,66,21.92,75,17.01,54.1,1539312600
Oranjemund,ZA,2018-10-12,59.04,97,24.18,92,-28.55,16.43,1539315294
Lachhmangarh,IN,2018-10-12,72.09,57,4.5,0,27.82,75.03,1539315317
Shimoda,JP,2018-10-12,73.4,78,11.41,75,34.7,138.93,1539309600
Quelimane,MZ,2018-10-12,75.2,88,2.24,75,-17.88,36.89,1539313200
Barra,GM,2018-10-12,82.58,97,9.98,0,13.49,-16.54,1539315538
Ganta,LR,2018-10-12,73.13,95,4.5,92,7.31,-8.54,1539315538
Aksu,KZ,2018-10-12,51.8,50,15.66,0,52.04,76.93,1539313200
Husavik,CA,2018-10-12,28.13,98,7.74,44,50.56,-96.99,1539315538
Yarada,IN,2018-10-12,84.06,100,18.25,24,17.65,83.27,1539315539
Honiara,SB,2018-10-12,89.6,66,14.99,20,-9.43,159.96,1539313200
North Platte,US,2018-10-12,41.0,75,6.93,90,41.12,-100.77,1539312780
Thinadhoo,MV,2018-10-12,83.07,99,5.61,64,0.53,72.93,1539315539
Sherbakul,RU,2018-10-12,44.91,86,7.4,68,54.63,72.39,1539315540
Sri Aman,MY,2018-10-12,86.0,74,3.36,75,1.24,111.46,1539313200
Nchelenge,ZM,2018-10-12,68.85,87,1.81,88,-9.35,28.74,1539315540
Conde,BR,2018-10-12,74.88,96,8.52,88,-11.81,-37.61,1539315524
Petropavlovsk-Kamchatskiy,RU,2018-10-12,51.8,57,4.47,64,53.05,158.65,1539313200
Carahue,CL,2018-10-12,45.95,100,7.96,0,-38.71,-73.16,1539315541
Olinala,MX,2018-10-12,68.81,83,1.92,64,17.83,-98.85,1539315541
Griffith,AU,2018-10-12,68.4,71,13.33,8,-34.29,146.06,1539315447
Saint-Pierre,FR,2018-10-12,59.0,93,11.41,0,48.95,4.24,1539313200
Tubajon,PH,2018-10-12,82.13,96,7.96,76,10.33,125.56,1539315542
Saveh,IR,2018-10-12,48.56,80,3.15,8,35.02,50.36,1539315543
Otradnoye,RU,2018-10-12,42.8,100,6.71,90,59.77,30.8,1539313200
Pringsewu,ID,2018-10-12,88.43,56,2.93,8,-5.36,104.98,1539315266
Padang,ID,2018-10-12,78.66,100,11.54,80,-0.92,100.36,1539315269
Motul,MX,2018-10-12,80.6,83,4.05,75,21.09,-89.28,1539312300
Tawang,BT,2018-10-12,42.08,96,0.92,92,27.59,91.87,1539315544
Sergeyevka,KZ,2018-10-12,33.57,93,10.98,0,53.88,67.42,1539315544
Natitingou,BJ,2018-10-12,73.4,100,2.71,0,10.31,1.38,1539313200
Rome,IT,2018-10-12,64.4,88,3.36,0,41.89,12.48,1539312900
Banda Aceh,ID,2018-10-12,79.7,95,1.92,56,5.56,95.32,1539315246
Bubaque,GW,2018-10-12,75.2,94,3.36,40,11.28,-15.83,1539313200
Vilnius,LT,2018-10-12,44.6,93,4.7,0,54.69,25.28,1539314400
Nizhniy Kuranakh,RU,2018-10-12,37.08,100,3.71,92,58.84,125.49,1539315546
Abu Samrah,SY,2018-10-12,56.93,88,1.92,12,35.3,37.18,1539315201
Port Augusta,AU,2018-10-12,77.0,31,12.75,40,-32.49,137.76,1539313200
Minsk,BY,2018-10-12,32.0,90,3.38,40,53.9,27.56,1539315120
Wonthaggi,AU,2018-10-12,66.15,59,2.93,8,-38.6,145.59,1539315547
Angoram,PG,2018-10-12,86.94,98,2.93,20,-4.06,144.07,1539315547
Verkhoyansk,RU,2018-10-12,18.36,82,3.71,36,67.55,133.39,1539315547
Karacabey,TR,2018-10-12,59.0,87,3.36,75,40.21,28.36,1539312600
Waipawa,NZ,2018-10-12,47.66,93,23.29,92,-39.94,176.59,1539315548
Sven,RU,2018-10-12,37.4,93,2.24,0,53.18,34.55,1539313200
Bodden Town,KY,2018-10-12,82.4,83,3.36,20,19.28,-81.25,1539313200
Tongzi,CN,2018-10-12,65.75,88,4.05,88,28.78,105.09,1539315549
Roald,NO,2018-10-12,60.8,51,14.99,44,62.58,6.12,1539312600
Saint-Francois,FR,2018-10-12,57.2,87,2.24,0,46.42,3.91,1539315000
Gondar,PT,2018-10-12,64.4,82,17.22,75,41.82,-8.78,1539315000
Mehamn,NO,2018-10-12,41.0,93,2.24,75,71.03,27.85,1539314400
Sao Jose de Ribamar,BR,2018-10-12,78.8,83,11.41,20,-2.56,-44.05,1539313200
Amboasary,MG,2018-10-12,69.8,94,11.41,75,-25.04,46.38,1539313200
Tazovskiy,RU,2018-10-12,33.57,98,14.45,92,67.47,78.7,1539315551
Batagay,RU,2018-10-12,22.95,83,3.15,88,67.65,134.64,1539315552
Kavaratti,IN,2018-10-12,83.79,99,10.09,80,10.57,72.64,1539315552
Vila Velha,BR,2018-10-12,78.8,78,8.05,0,-3.71,-38.6,1539313200
Holalkere,IN,2018-10-12,75.69,79,6.62,36,14.04,76.18,1539315553
Hanmer Springs,NZ,2018-10-12,33.12,100,10.42,92,-42.52,172.83,1539315553
Krasnovishersk,RU,2018-10-12,29.88,83,11.54,48,60.4,57.08,1539315553
Vestmannaeyjar,IS,2018-10-12,46.35,91,22.84,56,63.44,-20.27,1539315211
Kavieng,PG,2018-10-12,86.04,99,9.31,68,-2.57,150.8,1539315554
Hualmay,PE,2018-10-12,59.31,99,5.84,88,-11.1,-77.61,1539315554
Bolshaya Dzhalga,RU,2018-10-12,49.41,100,11.65,0,45.97,42.7,1539315554
Topolobampo,MX,2018-10-12,82.4,58,11.41,40,25.6,-109.05,1539312000
Tautira,PF,2018-10-12,82.4,69,10.29,75,-17.73,-149.15,1539313200
Wollongong,AU,2018-10-12,62.6,67,19.46,75,-34.42,150.89,1539313200
Yenagoa,NG,2018-10-12,74.07,96,4.83,88,4.92,6.26,1539315555
Huilong,CN,2018-10-12,63.99,46,3.04,12,28.89,110.18,1539315159
Burgeo,CA,2018-10-12,44.37,100,15.12,88,47.61,-57.61,1539315556
Corinto,BR,2018-10-12,81.63,36,12.66,20,-18.36,-44.46,1539315556
Paita,PE,2018-10-12,62.37,89,5.06,0,-5.09,-81.11,1539315175
Hwange,ZW,2018-10-12,56.66,38,4.38,0,-18.35,26.5,1539315556
Balezino,RU,2018-10-12,28.4,85,12.44,0,57.97,53.01,1539315556
Sutesti,RO,2018-10-12,50.67,94,10.98,0,45.22,27.43,1539315557
Santa Cruz do Rio Pardo,BR,2018-10-12,66.38,77,15.46,0,-22.91,-49.63,1539315557
Luanda,AO,2018-10-12,73.4,88,6.93,75,-8.83,13.24,1539313200
Bambanglipuro,ID,2018-10-12,87.39,54,4.38,0,-7.95,110.28,1539315558
Douentza,ML,2018-10-12,71.82,72,0.69,8,15.01,-2.95,1539315558
Mayo,CA,2018-10-12,32.0,91,2.59,90,63.59,-135.9,1539313200
Waslala,NI,2018-10-12,70.61,99,2.48,88,13.33,-85.37,1539315267
Lingao,CN,2018-10-12,79.25,86,11.65,68,19.91,109.69,1539315560
Bundaberg,AU,2018-10-12,69.84,100,13.78,92,-24.87,152.35,1539315561
Alipur Chatha,PK,2018-10-12,68.0,72,4.72,0,32.27,73.82,1539313200
Vermilion,CA,2018-10-12,32.0,90,9.17,90,53.35,-110.85,1539313200
Manta,RO,2018-10-12,42.21,83,3.6,0,45.1,24.1,1539315563
Heide,DE,2018-10-12,55.4,87,5.82,40,54.19,9.09,1539314400
Itapecerica,BR,2018-10-12,72.18,68,12.66,32,-20.47,-45.13,1539315398
Nelson Bay,AU,2018-10-12,64.4,59,19.46,75,-32.72,152.14,1539313200
Camacha,PT,2018-10-12,69.8,94,3.36,20,33.08,-16.33,1539313200
Ojinaga,US,2018-10-12,73.31,26,6.4,92,29.56,-104.41,1539315564
Imeni Poliny Osipenko,RU,2018-10-12,50.13,52,3.83,0,52.42,136.49,1539315564
Boca do Acre,BR,2018-10-12,77.67,91,1.36,44,-8.76,-67.39,1539315565
San Lazaro,BZ,2018-10-12,84.2,79,5.82,75,18.04,-88.66,1539312540
Doda,IN,2018-10-12,46.76,73,1.81,0,33.14,75.55,1539315565
Ust-Koksa,RU,2018-10-12,32.04,68,2.37,0,50.27,85.62,1539315566
Sinnamary,GF,2018-10-12,81.09,94,13.89,20,5.38,-52.96,1539315566
Loa Janan,ID,2018-10-12,82.4,86,2.82,68,-0.58,117.09,1539315566
Agutaya,PH,2018-10-12,84.51,99,14.79,8,11.15,120.94,1539315566
Naze,NG,2018-10-12,71.15,97,3.04,80,5.43,7.07,1539315567
Ilulissat,GL,2018-10-12,14.0,51,1.12,0,69.22,-51.1,1539312600
Mabaruma,GY,2018-10-12,80.33,88,7.52,20,8.2,-59.78,1539315227
Ikom,NG,2018-10-12,70.25,93,2.37,64,5.96,8.72,1539315567
Pangoa,PE,2018-10-12,66.42,96,0.92,76,-12.12,-73.0,1539315568
Foumbot,CM,2018-10-12,63.45,94,3.38,56,5.51,10.64,1539315568
Burnie,AU,2018-10-12,54.18,100,14.12,76,-41.05,145.91,1539315568
Tura,IN,2018-10-12,70.43,98,5.73,92,25.52,90.21,1539315568
Faya,SA,2018-10-12,60.8,36,4.38,0,18.39,42.45,1539313200
Lubango,AO,2018-10-12,51.93,89,2.04,0,-14.92,13.49,1539315569
Lazaro Cardenas,MX,2018-10-12,68.0,40,4.7,75,28.39,-105.62,1539312000
Cancun,MX,2018-10-12,77.0,94,3.6,40,21.17,-86.85,1539312120
Bridgetown,CA,2018-10-12,48.2,100,11.41,90,44.84,-65.29,1539313200
Ouahigouya,BF,2018-10-12,75.2,72,2.82,56,13.58,-2.42,1539315570
Merauke,ID,2018-10-12,88.47,65,8.08,48,-8.49,140.4,1539315248
Yasugi,JP,2018-10-12,66.2,39,5.82,75,35.43,133.25,1539313200
Daoukro,CI,2018-10-12,73.58,96,2.48,88,7.06,-3.97,1539315571
Elko,US,2018-10-12,42.98,11,3.36,1,40.83,-115.76,1539312960
Houston,US,2018-10-12,73.94,56,9.17,1,29.76,-95.37,1539314100
Vila,IT,2018-10-12,59.0,100,4.7,90,45.18,8.4,1539312900
Berlevag,NO,2018-10-12,39.2,93,2.24,75,70.86,29.09,1539312600
Slave Lake,CA,2018-10-12,39.2,86,6.17,90,55.28,-114.77,1539313200
Adre,TD,2018-10-12,71.01,26,12.55,32,13.47,22.2,1539315572
Princeton,US,2018-10-12,41.72,81,6.93,1,41.37,-89.46,1539314100
Fayaoue,NC,2018-10-12,77.0,100,3.71,0,-20.65,166.53,1539315215
Airai,TL,2018-10-12,88.25,32,1.7,0,-8.93,125.41,1539315573
Umtata,ZA,2018-10-12,55.4,66,4.7,90,-31.59,28.78,1539313200
Teahupoo,PF,2018-10-12,82.4,69,10.29,75,-17.83,-149.27,1539313200
Kenai,US,2018-10-12,48.02,76,4.7,90,60.55,-151.26,1539312780
Surgut,RU,2018-10-12,33.8,100,6.71,75,61.25,73.4,1539313200
Denpasar,ID,2018-10-12,86.0,66,9.17,20,-8.65,115.22,1539313200
Nemuro,JP,2018-10-12,57.2,93,6.93,75,43.32,145.57,1539310980
Coari,BR,2018-10-12,78.84,92,2.59,64,-4.09,-63.14,1539315575
Letlhakane,BW,2018-10-12,62.91,40,9.75,0,-21.42,25.59,1539315576
Carlsbad,CZ,2018-10-12,42.8,93,2.24,0,50.23,12.87,1539313200
Zaraza,VE,2018-10-12,78.21,88,7.29,44,9.35,-65.33,1539315576
Grand-Santi,GF,2018-10-12,82.53,65,5.17,8,4.27,-54.38,1539315576
Orcopampa,PE,2018-10-12,23.63,83,2.26,24,-15.27,-72.34,1539315577
Naranjo,CR,2018-10-12,68.0,88,6.93,75,10.1,-84.38,1539313200
Senno,RU,2018-10-12,37.4,100,2.24,0,57.76,27.95,1539313200
