City,Country,Date (YYYY-MM-DD),Max Temperature,Humidity,Wind Speed,Cloudiness,Latitude,Longitude,UNIX Timestamp
Beyneu,KZ,2018-10-12,42.21,86,8.52,0,45.32,55.19,1539314574
Ushuaia,AR,2018-10-12,46.4,52,5.82,75,-54.81,-68.31,1539313200
Khatanga,RU,2018-10-12,24.35,84,14.56,0,71.98,102.47,1539314575
Puerto Ayora,EC,2018-10-12,70.29,100,12.88,0,-0.74,-90.35,1539314575
Esperance,TT,2018-10-12,78.8,88,5.61,20,10.24,-61.45,1539313200
Teya,MX,2018-10-12,80.6,83,3.94,75,21.05,-89.07,1539312300
Huarmey,PE,2018-10-12,53.06,90,3.94,36,-10.07,-78.15,1539314576
Chuy,UY,2018-10-12,51.8,100,8.3,100,-33.69,-53.46,1539314576
Hamilton,BM,2018-10-12,75.2,64,8.05,20,32.3,-64.78,1539309300
Broome,GB,2018-10-12,57.2,93,11.41,48,52.47,1.45,1539312960
Nome,US,2018-10-12,69.98,78,3.36,90,30.04,-94.42,1539312900
Port Alfred,ZA,2018-10-12,62.28,100,12.1,92,-33.59,26.89,1539314576
Natal,BR,2018-10-12,77.0,73,11.41,20,-5.81,-35.21,1539313200
Pitimbu,BR,2018-10-12,75.2,78,9.17,20,-7.47,-34.81,1539309600
Maniitsoq,GL,2018-10-12,18.81,100,6.62,0,65.42,-52.9,1539314577
Faya,SA,2018-10-12,60.8,36,4.38,0,18.39,42.45,1539309600
Serebryansk,KZ,2018-10-12,51.8,62,4.47,40,49.68,83.3,1539311400
Youkounkoun,GN,2018-10-12,75.78,85,8.97,0,12.53,-13.12,1539314578
Mataura,NZ,2018-10-12,43.7,67,19.04,92,-46.19,168.86,1539314578
Busselton,AU,2018-10-12,62.73,100,12.44,92,-33.64,115.35,1539314299
Zaria,NG,2018-10-12,71.82,79,7.96,24,11.11,7.72,1539314334
Barranca de Upia,CO,2018-10-12,65.66,90,1.81,80,4.57,-72.97,1539314579
Rikitea,PF,2018-10-12,70.92,100,13.22,92,-23.12,-134.97,1539314579
Traralgon,AU,2018-10-12,63.95,61,4.16,12,-38.19,146.54,1539314579
Borovoy,RU,2018-10-12,33.93,78,13.44,68,63.23,52.89,1539314580
Avarua,CK,2018-10-12,78.8,65,16.11,75,-21.21,-159.78,1539313200
Betare Oya,CM,2018-10-12,66.2,96,3.38,20,5.6,14.08,1539314580
Yellowknife,CA,2018-10-12,30.2,86,9.17,90,62.45,-114.38,1539313980
Vaini,IN,2018-10-12,79.88,58,2.71,0,15.34,74.49,1539314581
Victoria,BN,2018-10-12,87.8,74,3.36,75,5.28,115.24,1539313200
Ponta do Sol,BR,2018-10-12,72.99,64,10.65,24,-20.63,-46.0,1539314581
Hilo,US,2018-10-12,80.06,69,3.36,90,19.71,-155.08,1539312780
Hobart,AU,2018-10-12,59.0,58,8.05,40,-42.88,147.33,1539313200
Arecibo,PR,2018-10-12,79.65,99,7.18,64,18.47,-66.72,1539314582
Georgetown,GY,2018-10-12,77.0,94,4.7,0,6.8,-58.16,1539309600
Bilma,NE,2018-10-12,75.83,26,4.16,48,18.69,12.92,1539314582
Arkul,RU,2018-10-12,32.0,75,12.21,0,57.28,50.04,1539314583
Albany,US,2018-10-12,66.2,86,10.29,90,42.65,-73.75,1539314220
Hermanus,ZA,2018-10-12,51.98,90,6.29,44,-34.42,19.24,1539314583
Komsomolskiy,RU,2018-10-12,31.77,96,17.25,92,67.55,63.78,1539314584
Yar-Sale,RU,2018-10-12,32.31,100,16.91,88,66.83,70.83,1539314584
Brownfield,US,2018-10-12,60.8,79,9.17,90,33.18,-102.27,1539312900
Muros,ES,2018-10-12,60.8,82,16.11,40,42.77,-9.06,1539313200
Upata,VE,2018-10-12,74.21,84,6.51,24,8.02,-62.41,1539314585
Sistranda,NO,2018-10-12,55.4,66,16.11,0,63.73,8.83,1539312600
Cape Town,ZA,2018-10-12,57.2,71,17.22,40,-33.93,18.42,1539313200
Coihaique,CL,2018-10-12,44.6,72,5.82,0,-45.58,-72.07,1539309600
Dagana,MR,2018-10-12,75.83,69,5.39,0,16.52,-15.51,1539314586
El Alto,BO,2018-10-12,42.8,93,5.82,75,-16.5,-68.19,1539309600
Lebu,ET,2018-10-12,39.78,79,3.6,0,8.96,38.73,1539314586
Morgan City,US,2018-10-12,66.92,78,6.93,1,29.7,-91.21,1539314100
Geraldton,CA,2018-10-12,28.4,92,9.17,90,49.72,-86.95,1539313200
Meulaboh,ID,2018-10-12,79.83,100,2.15,64,4.14,96.13,1539314587
Togur,RU,2018-10-12,49.86,57,15.9,80,58.36,82.83,1539314587
San Quintin,PH,2018-10-12,89.6,62,4.7,20,17.54,120.52,1539313200
Saint George,GR,2018-10-12,59.0,72,6.93,20,39.45,22.34,1539312600
Airai,TL,2018-10-12,88.25,32,1.7,0,-8.93,125.41,1539314588
Vardo,US,2018-10-12,69.8,70,14.99,90,39.62,-77.74,1539313500
Salalah,OM,2018-10-12,84.2,66,19.46,0,17.01,54.1,1539309000
Atuona,PF,2018-10-12,79.92,100,18.03,76,-9.8,-139.03,1539314589
Haapiti,PF,2018-10-12,82.4,69,10.29,75,-17.57,-149.87,1539313200
Butaritari,KI,2018-10-12,83.43,100,7.74,44,3.07,172.79,1539314589
Iqaluit,CA,2018-10-12,14.0,85,8.05,20,63.75,-68.52,1539313200
Mantua,IT,2018-10-12,60.8,87,1.12,75,45.16,10.79,1539312900
Punta Arenas,CL,2018-10-12,44.6,70,14.99,0,-53.16,-70.91,1539309600
Trairi,BR,2018-10-12,79.65,100,21.05,56,-3.28,-39.27,1539314590
Cidreira,BR,2018-10-12,63.95,76,17.58,68,-30.17,-50.22,1539314590
New Norfolk,AU,2018-10-12,59.0,58,8.05,40,-42.78,147.06,1539313200
Saint Anthony,US,2018-10-12,42.98,12,5.17,20,43.97,-111.68,1539312960
Kodiak,US,2018-10-12,42.08,88,2.93,1,39.95,-94.76,1539309180
Pevek,RU,2018-10-12,33.8,100,5.95,0,69.7,170.27,1539314591
Mandalgovi,MN,2018-10-12,45.95,67,5.39,8,45.76,106.27,1539314591
Turayf,SA,2018-10-12,66.2,72,6.93,75,31.68,38.65,1539309600
Abha,SA,2018-10-12,60.8,36,2.71,0,18.22,42.5,1539309600
Bluff,AU,2018-10-12,79.11,59,10.42,92,-23.58,149.07,1539314592
Lompoc,US,2018-10-12,62.96,75,3.36,90,34.64,-120.46,1539313080
Qaanaaq,GL,2018-10-12,22.5,100,10.42,64,77.48,-69.36,1539314593
Lagos,NG,2018-10-12,77.0,94,2.24,20,6.46,3.39,1539313200
Carahue,CL,2018-10-12,45.95,100,7.96,0,-38.71,-73.16,1539314593
Thompson,CA,2018-10-12,19.4,67,2.24,5,55.74,-97.86,1539313200
Goderich,CA,2018-10-12,50.67,83,21.72,68,43.74,-81.71,1539314594
Bambanglipuro,ID,2018-10-12,87.39,54,4.38,0,-7.95,110.28,1539314594
Jasper,US,2018-10-12,60.98,76,6.4,1,33.83,-87.28,1539312960
Kununurra,AU,2018-10-12,96.8,26,6.93,0,-15.77,128.74,1539313200
Northam,GB,2018-10-12,59.0,77,16.11,92,51.04,-4.21,1539309000
Marawi,PH,2018-10-12,78.53,89,1.81,44,8.0,124.29,1539314595
Castro,CL,2018-10-12,35.55,100,2.93,20,-42.48,-73.76,1539314595
Labuhan,ID,2018-10-12,86.45,67,1.03,24,-2.54,115.51,1539314596
Vestmannaeyjar,IS,2018-10-12,46.35,91,22.84,56,63.44,-20.27,1539314596
Fortuna,ES,2018-10-12,64.4,93,4.7,0,38.18,-1.13,1539313200
Ahipara,NZ,2018-10-12,59.0,84,24.07,80,-35.17,173.16,1539314596
Eldorado,MX,2018-10-12,80.6,74,4.05,75,24.32,-107.36,1539312360
Nikolskoye,RU,2018-10-12,42.8,100,6.71,90,59.7,30.79,1539311400
Aksha,RU,2018-10-12,54.68,44,4.16,0,50.28,113.29,1539314597
Ancud,CL,2018-10-12,39.96,84,2.71,24,-41.87,-73.83,1539314597
Beringovskiy,RU,2018-10-12,41.04,100,24.52,92,63.05,179.32,1539314598
Gunjur,GM,2018-10-12,82.58,97,9.98,0,13.18,-16.76,1539314598
Padang,ID,2018-10-12,78.66,100,11.54,80,-0.92,100.36,1539314598
Terney,RU,2018-10-12,53.19,99,11.1,0,45.05,136.61,1539314598
Saldanha,PT,2018-10-12,51.39,95,6.51,24,41.42,-6.55,1539314599
Carnarvon,ZA,2018-10-12,56.48,43,8.75,92,-30.97,22.13,1539314599
Aswan,EG,2018-10-12,63.68,72,5.61,0,24.09,32.9,1539314383
The Valley,AI,2018-10-12,80.6,83,9.17,20,18.22,-63.06,1539309600
Wainwright,CA,2018-10-12,31.01,90,10.76,80,52.84,-110.86,1539314599
Berlevag,NO,2018-10-12,39.2,93,2.24,75,70.86,29.09,1539312600
Half Moon Bay,US,2018-10-12,64.94,59,9.17,5,37.46,-122.43,1539312960
Noumea,NC,2018-10-12,84.2,51,10.29,0,-22.28,166.46,1539313200
Rocha,UY,2018-10-12,46.17,99,8.63,92,-34.48,-54.34,1539314346
Rio Gallegos,AR,2018-10-12,44.6,52,12.75,40,-51.62,-69.22,1539309600
Buchanan,LR,2018-10-12,75.2,94,4.7,75,5.88,-10.05,1539313200
Forio,IT,2018-10-12,66.2,82,5.61,40,40.73,13.86,1539312900
Arraial do Cabo,BR,2018-10-12,73.17,98,4.5,92,-22.97,-42.02,1539314601
Sorland,NO,2018-10-12,50.0,81,3.36,0,67.67,12.69,1539312600
Touros,BR,2018-10-12,75.65,93,14.34,88,-5.2,-35.46,1539314602
Itarema,BR,2018-10-12,75.96,87,13.78,0,-2.92,-39.92,1539314602
Yulara,AU,2018-10-12,82.4,42,13.87,40,-25.24,130.99,1539313200
Erenhot,CN,2018-10-12,48.11,41,5.84,0,43.65,111.97,1539314602
Tuktoyaktuk,CA,2018-10-12,23.0,92,9.17,90,69.44,-133.03,1539313200
Kapaa,US,2018-10-12,82.04,76,9.17,90,22.08,-159.32,1539312960
Tonantins,BR,2018-10-12,77.22,92,1.14,68,-2.86,-67.77,1539314603
Lagoa,PT,2018-10-12,68.0,94,2.24,75,37.14,-8.45,1539313200
Souillac,FR,2018-10-12,62.6,93,4.7,0,45.6,-0.6,1539313200
Provideniya,RU,2018-10-12,42.8,87,20.13,75,64.42,-173.23,1539311400
Bambous Virieux,MU,2018-10-12,71.6,64,12.75,20,-20.34,57.76,1539309600
Barrow,AR,2018-10-12,51.26,47,6.85,92,-38.31,-60.23,1539314605
Bubanza,BI,2018-10-12,55.44,100,1.92,44,-3.08,29.39,1539314605
Beloha,MG,2018-10-12,66.11,83,7.63,0,-25.17,45.06,1539314605
Arue,FR,2018-10-12,59.0,100,3.36,0,44.06,-0.35,1539313200
Marsa Matruh,EG,2018-10-12,64.4,82,4.27,20,31.35,27.25,1539309600
Hami,CN,2018-10-12,54.54,44,6.85,0,42.84,93.51,1539314606
Sangar,RU,2018-10-12,26.46,72,7.29,88,63.92,127.47,1539314606
Jamestown,AU,2018-10-12,72.45,44,5.5,0,-33.21,138.6,1539314606
Chokurdakh,RU,2018-10-12,23.18,93,3.71,80,70.62,147.9,1539314607
Longyearbyen,NO,2018-10-12,33.8,69,23.04,75,78.22,15.63,1539312600
Hoa Binh,VN,2018-10-12,75.2,57,9.17,0,20.81,105.34,1539313200
East London,ZA,2018-10-12,62.6,67,9.17,40,-33.02,27.91,1539313200
Deniliquin,AU,2018-10-12,69.26,57,12.77,8,-35.53,144.96,1539314608
Kutum,SD,2018-10-12,66.42,27,12.55,0,14.2,24.66,1539314608
Torbay,CA,2018-10-12,35.6,69,8.05,90,47.66,-52.73,1539313200
Fayetteville,US,2018-10-12,53.6,82,5.73,90,36.06,-94.16,1539313080
Xichang,CN,2018-10-12,47.25,100,1.81,92,27.88,102.25,1539314608
Kedrovyy,RU,2018-10-12,30.2,86,2.24,0,56.17,91.82,1539311400
Tasiilaq,GL,2018-10-12,32.0,100,3.36,92,65.61,-37.64,1539312600
Mount Isa,AU,2018-10-12,89.6,18,8.05,44,-20.73,139.49,1539313200
Kruisfontein,ZA,2018-10-12,59.85,100,12.44,100,-34.0,24.73,1539314610
Solnechnyy,RU,2018-10-12,50.67,55,3.27,0,50.72,136.64,1539314610
Nebolchi,RU,2018-10-12,40.05,96,5.84,0,59.12,33.35,1539314610
Jalu,LY,2018-10-12,60.48,69,6.4,0,29.03,21.55,1539314610
Bethel,US,2018-10-12,46.04,82,12.75,90,60.79,-161.76,1539312780
Tamandare,BR,2018-10-12,75.11,93,1.7,44,-8.28,-70.75,1539314611
Dikson,RU,2018-10-12,32.0,100,20.83,80,73.51,80.55,1539314611
Constitucion,MX,2018-10-12,62.6,36,10.29,40,23.99,-104.67,1539312180
Kieta,PG,2018-10-12,82.76,95,5.39,68,-6.22,155.63,1539314612
Mitsamiouli,KM,2018-10-12,76.32,100,10.42,0,-11.38,43.28,1539314612
Bykovo,RU,2018-10-12,39.78,93,10.2,0,49.76,45.39,1539314612
Kosino,RU,2018-10-12,29.61,88,11.99,0,58.41,51.28,1539314613
Honiara,SB,2018-10-12,89.6,66,14.99,20,-9.43,159.96,1539313200
Grindavik,IS,2018-10-12,46.4,81,16.11,75,63.84,-22.43,1539311400
Aklavik,CA,2018-10-12,24.8,92,6.93,90,68.22,-135.01,1539313200
Gamba,CN,2018-10-12,26.91,73,2.82,80,28.28,88.52,1539314614
Bredasdorp,ZA,2018-10-12,57.2,67,8.05,92,-34.53,20.04,1539313200
Port Elizabeth,US,2018-10-12,75.92,96,11.41,90,39.31,-74.98,1539313440
Port Hedland,AU,2018-10-12,93.2,41,14.99,0,-20.31,118.58,1539313200
Nabire,ID,2018-10-12,76.28,89,2.59,76,-3.36,135.5,1539314615
Grand Island,US,2018-10-12,46.04,65,3.36,90,40.92,-98.34,1539312780
Auki,NG,2018-10-12,72.27,80,3.27,64,12.18,6.51,1539314615
Kiama,AU,2018-10-12,60.8,67,14.99,75,-34.67,150.86,1539313200
Mahebourg,MU,2018-10-12,71.6,64,12.75,20,-20.41,57.7,1539309600
Segou,SN,2018-10-12,74.43,81,2.93,0,12.41,-12.29,1539314616
Lorengau,PG,2018-10-12,86.67,92,10.54,32,-2.02,147.27,1539314616
Tabat,ID,2018-10-12,85.05,79,2.82,36,-2.64,115.23,1539314616
Tatarsk,RU,2018-10-12,49.68,53,13.22,88,55.22,75.96,1539314616
Alta Floresta,BR,2018-10-12,72.54,97,1.7,44,-9.87,-56.08,1539314616
Svetlaya,RU,2018-10-12,51.53,100,15.01,68,46.54,138.33,1539314617
Norman Wells,CA,2018-10-12,28.4,79,4.7,75,65.28,-126.83,1539313200
Moose Factory,CA,2018-10-12,32.0,100,10.29,90,51.26,-80.61,1539314040
Mar del Plata,AR,2018-10-12,48.38,51,13.0,0,-46.43,-67.52,1539314617
Nicoya,CR,2018-10-12,77.0,94,5.82,75,10.15,-85.45,1539313200
Yarmouth,GB,2018-10-12,57.2,87,14.99,75,50.71,-1.5,1539312600
Carutapera,BR,2018-10-12,80.28,83,10.87,68,-1.2,-46.02,1539314618
Sarh,TD,2018-10-12,73.4,88,4.7,20,9.14,18.39,1539309600
Bocas del Toro,PA,2018-10-12,82.85,100,4.16,8,9.33,-82.25,1539314618
Hithadhoo,MV,2018-10-12,84.15,98,4.72,48,-0.6,73.08,1539314618
Wasilla,US,2018-10-12,51.98,73,2.15,90,61.58,-149.44,1539312960
Morondava,MG,2018-10-12,72.18,99,3.71,20,-20.3,44.28,1539314619
Zlitan,LY,2018-10-12,64.35,100,4.61,0,32.47,14.57,1539314620
Hualmay,PE,2018-10-12,59.31,99,5.84,88,-11.1,-77.61,1539314620
Vallenar,CL,2018-10-12,51.21,89,1.48,92,-28.58,-70.76,1539314620
Upernavik,GL,2018-10-12,25.11,100,11.99,0,72.79,-56.15,1539314620
Coquimbo,CL,2018-10-12,51.8,81,3.36,0,-29.95,-71.34,1539309600
Ballina,IE,2018-10-12,54.09,95,35.03,92,54.11,-9.15,1539314552
Morrinhos,BR,2018-10-12,75.96,87,13.78,0,-3.23,-40.13,1539314621
Picton,AU,2018-10-12,62.6,67,19.46,75,-34.17,150.61,1539313200
La Ronge,CA,2018-10-12,30.2,80,4.7,40,55.1,-105.3,1539313200
Aksu,KZ,2018-10-12,50.0,53,15.66,0,52.04,76.93,1539311400
Te Anau,NZ,2018-10-12,35.19,89,11.1,88,-45.41,167.72,1539314622
Eureka,US,2018-10-12,50.0,96,2.26,90,40.8,-124.16,1539312900
Sao Joao da Barra,BR,2018-10-12,74.7,100,2.71,76,-21.64,-41.05,1539314623
Vangaindrano,MG,2018-10-12,64.89,99,2.15,80,-23.35,47.6,1539314623
Concarneau,FR,2018-10-12,60.8,87,17.22,75,47.88,-3.92,1539313200
Skowhegan,US,2018-10-12,46.04,100,9.17,90,44.77,-69.72,1539309360
Mabaruma,GY,2018-10-12,80.33,88,7.52,20,8.2,-59.78,1539314623
Vostok,RU,2018-10-12,44.6,77,3.71,44,46.45,135.83,1539314623
Gagino,RU,2018-10-12,31.32,86,5.17,0,54.27,39.54,1539314624
Rawson,AR,2018-10-12,57.6,37,19.26,0,-43.3,-65.11,1539314624
Aktau,KZ,2018-10-12,51.8,100,8.95,0,43.65,51.16,1539311400
Izhma,RU,2018-10-12,34.83,80,10.2,48,65.01,53.91,1539314624
Bonavista,CA,2018-10-12,38.34,100,11.99,24,48.65,-53.11,1539314625
Ifakara,TZ,2018-10-12,72.68,70,5.73,0,-8.13,36.68,1539314625
Moron,VE,2018-10-12,77.0,83,2.71,90,10.49,-68.2,1539309600
Pavilosta,LV,2018-10-12,53.6,87,6.93,0,56.89,21.19,1539312600
Bull Savanna,JM,2018-10-12,71.73,93,1.7,68,17.89,-77.59,1539314626
Kasongo-Lunda,CD,2018-10-12,68.36,100,2.48,92,-6.48,16.82,1539314626
Ridgecrest,US,2018-10-12,62.96,33,8.05,1,35.62,-117.67,1539312960
Sorong,ID,2018-10-12,80.46,100,4.27,32,-0.86,131.25,1539314627
Martinez,US,2018-10-12,66.92,60,8.05,1,38.01,-122.13,1539313080
Okhotsk,RU,2018-10-12,38.66,92,5.17,0,59.36,143.24,1539314627
Sulangan,PH,2018-10-12,83.03,100,12.44,8,11.14,123.72,1539314627
Pangody,RU,2018-10-12,31.05,100,5.95,92,65.85,74.49,1539314627
Nishihara,JP,2018-10-12,71.6,66,12.75,75,35.74,139.53,1539313200
Monroe,US,2018-10-12,50.0,63,11.41,90,41.91,-83.4,1539314340
Dunedin,NZ,2018-10-12,38.66,85,17.13,92,-45.87,170.5,1539314628
Saskylakh,RU,2018-10-12,26.82,96,4.61,64,71.97,114.09,1539314629
Choix,MX,2018-10-12,69.53,73,0.69,92,26.71,-108.33,1539314629
Clyde River,CA,2018-10-12,15.8,85,6.17,75,70.47,-68.59,1539313200
Ust-Maya,RU,2018-10-12,31.14,73,3.71,76,60.42,134.54,1539314630
Shenjiamen,CN,2018-10-12,69.48,89,14.23,92,29.96,122.3,1539314630
Kaitangata,NZ,2018-10-12,43.38,68,21.83,92,-46.28,169.85,1539314631
San Patricio,PY,2018-10-12,71.51,96,3.71,80,-26.98,-56.83,1539314631
Emirdag,TR,2018-10-12,42.84,95,2.26,56,39.02,31.15,1539314697
Champerico,MX,2018-10-12,73.4,88,1.92,90,16.38,-93.6,1539312600
Russell,AR,2018-10-12,66.2,22,8.05,40,-33.01,-68.8,1539309600
Trelleborg,SE,2018-10-12,57.2,82,11.41,0,55.38,13.15,1539312600
Brae,GB,2018-10-12,53.6,100,14.99,92,60.4,-1.35,1539312600
Chippewa Falls,US,2018-10-12,35.06,16,11.41,90,44.94,-91.39,1539314100
Hovd,NO,2018-10-12,57.2,58,8.05,0,63.83,10.7,1539312600
Doka,SD,2018-10-12,67.23,91,2.71,8,13.52,35.76,1539314700
Raya,IN,2018-10-12,78.03,72,4.61,0,27.56,77.79,1539314635
Sakleshpur,IN,2018-10-12,71.78,92,2.71,8,12.94,75.79,1539314635
Formosa,AR,2018-10-12,75.2,88,4.7,90,-26.19,-58.17,1539309600
Lasa,CY,2018-10-12,68.0,68,6.93,40,34.92,32.53,1539313200
Nikolayevsk-na-amure,RU,2018-10-12,48.69,83,6.17,0,53.14,140.72,1539314636
Tuatapere,NZ,2018-10-12,44.01,100,19.15,88,-46.13,167.69,1539314637
Ribeira Grande,PT,2018-10-12,69.3,100,31.9,92,38.52,-28.7,1539314637
Sinjar,SY,2018-10-12,56.93,88,1.92,12,35.59,37.0,1539314638
Husavik,CA,2018-10-12,28.13,98,7.74,44,50.56,-96.99,1539314638
Saint-Augustin,FR,2018-10-12,62.6,93,8.05,0,44.83,-0.61,1539313200
Hokitika,NZ,2018-10-12,50.45,86,17.02,64,-42.72,170.96,1539314638
Lensk,RU,2018-10-12,38.03,87,7.74,88,60.71,114.91,1539314639
Lakatoro,VU,2018-10-12,80.33,85,6.96,80,-16.11,167.42,1539314639
Codrington,AU,2018-10-12,61.83,95,6.4,92,-28.95,153.24,1539314639
Mozarlandia,BR,2018-10-12,72.9,84,2.37,0,-14.74,-50.57,1539314640
Vao,EE,2018-10-12,47.97,97,5.95,8,59.1,26.19,1539314640
Sioux Lookout,CA,2018-10-12,28.4,92,8.05,90,50.1,-91.92,1539313320
Pisco,PE,2018-10-12,64.4,88,16.11,90,-13.71,-76.2,1539309600
Maragogi,BR,2018-10-12,75.78,82,6.17,92,-9.01,-35.22,1539314641
Goundi,TD,2018-10-12,69.93,79,4.72,8,9.36,17.37,1539314641
Balkhash,KZ,2018-10-12,53.46,100,9.98,44,46.84,74.98,1539314641
Haines Junction,CA,2018-10-12,29.3,84,2.15,32,60.75,-137.51,1539314641
Awbari,LY,2018-10-12,72.41,37,10.2,88,26.59,12.77,1539314642
Hasaki,JP,2018-10-12,69.8,77,9.17,75,35.73,140.83,1539311400
Ryotsu,JP,2018-10-12,64.4,59,12.75,75,38.08,138.43,1539309600
Lithgow,AU,2018-10-12,62.6,67,16.11,90,-33.48,150.16,1539313200
Mount Gambier,AU,2018-10-12,68.81,66,6.73,0,-37.83,140.78,1539314643
Antofagasta,CL,2018-10-12,59.0,87,6.93,75,-23.65,-70.4,1539309600
Sovetskiy,RU,2018-10-12,31.59,73,10.76,0,56.76,48.47,1539314643
Walvis Bay,NA,2018-10-12,55.4,87,9.17,76,-22.95,14.51,1539309600
Broken Hill,AU,2018-10-12,71.91,59,9.53,48,-31.97,141.45,1539314644
Ilulissat,GL,2018-10-12,14.0,51,1.12,0,69.22,-51.1,1539312600
Peace River,CA,2018-10-12,41.0,86,13.87,75,56.23,-117.29,1539313200
Plettenberg Bay,ZA,2018-10-12,59.67,100,12.66,100,-34.05,23.37,1539314644
Puro,PH,2018-10-12,84.56,83,5.5,44,13.13,123.76,1539314645
Kavieng,PG,2018-10-12,86.04,99,9.31,68,-2.57,150.8,1539314645
Kenai,US,2018-10-12,51.08,76,4.7,90,60.55,-151.26,1539312780
Eirunepe,BR,2018-10-12,77.18,93,1.59,76,-6.66,-69.87,1539314646
Mayo,CA,2018-10-12,32.0,91,2.59,90,63.59,-135.9,1539313200
Tari,NG,2018-10-12,74.93,85,5.61,8,12.41,4.49,1539314646
Staraya Toropa,RU,2018-10-12,33.26,81,3.04,8,56.28,31.67,1539314646
Makat,KZ,2018-10-12,39.83,73,12.77,0,47.65,53.35,1539314647
Ambilobe,MG,2018-10-12,73.53,67,15.12,0,-13.19,49.05,1539314647
Qaqortoq,GL,2018-10-12,24.8,58,2.24,40,60.72,-46.03,1539312600
Les Cayes,HT,2018-10-12,78.12,100,2.59,56,18.19,-73.75,1539314648
San Cristobal,EC,2018-10-12,50.0,76,8.05,40,-0.39,-78.55,1539313200
Hambantota,LK,2018-10-12,77.63,100,4.94,80,6.12,81.12,1539314648
Cabo San Lucas,MX,2018-10-12,77.0,78,9.19,5,22.89,-109.91,1539312360
Nanakuli,US,2018-10-12,80.96,98,6.93,90,21.39,-158.15,1539313020
Verkhoyansk,RU,2018-10-12,18.36,82,3.71,36,67.55,133.39,1539314649
Korhogo,CI,2018-10-12,73.17,87,4.16,8,9.46,-5.63,1539314649
Livingston,US,2018-10-12,62.06,74,8.05,1,32.58,-88.19,1539309480
Kuybyshevo,UA,2018-10-12,59.22,100,10.31,0,44.63,33.86,1539314649
Richards Bay,ZA,2018-10-12,68.58,86,14.56,80,-28.77,32.06,1539314650
Mendeleyevo,RU,2018-10-12,35.6,93,4.47,0,56.04,37.23,1539311400
Umm Lajj,SA,2018-10-12,71.73,100,7.74,0,25.02,37.27,1539314650
Saint-Joseph,FR,2018-10-12,62.6,93,2.24,20,43.56,6.97,1539313200
Karratha,AU,2018-10-12,95.94,16,6.29,0,-20.74,116.85,1539314651
Naze,NG,2018-10-12,71.15,97,3.04,80,5.43,7.07,1539314651
Cordoba,CO,2018-10-12,53.91,95,0.58,80,5.59,-73.79,1539314651
Konevo,BG,2018-10-12,56.48,74,9.98,48,41.67,25.61,1539314652
Macheng,CN,2018-10-12,68.49,36,1.92,0,31.18,115.03,1539314652
Leningradskiy,RU,2018-10-12,35.51,98,13.22,80,69.38,178.42,1539314652
Namibe,AO,2018-10-12,68.18,100,7.74,68,-15.19,12.15,1539314652
San Carlos de Bariloche,AR,2018-10-12,42.8,89,21.92,0,-41.13,-71.31,1539309600
Nanortalik,GL,2018-10-12,33.98,95,28.88,20,60.14,-45.24,1539314653
Zapotiltic,MX,2018-10-12,71.6,88,2.37,75,19.63,-103.42,1539312000
Qaracala,AZ,2018-10-12,61.7,100,4.27,80,39.81,48.95,1539314653
Ashford,GB,2018-10-12,60.8,87,10.29,56,51.43,-0.46,1539312600
Kargasok,RU,2018-10-12,51.71,55,10.87,88,59.06,80.87,1539314654
Lang Son,VN,2018-10-12,74.66,64,8.63,8,21.83,106.73,1539314654
Klaksvik,FO,2018-10-12,48.2,100,9.17,32,62.23,-6.59,1539312600
Diego de Almagro,CL,2018-10-12,52.43,92,2.15,8,-26.39,-70.05,1539314655
Phek,IN,2018-10-12,64.35,100,2.04,100,25.7,94.46,1539314655
Cayenne,GF,2018-10-12,77.0,100,4.7,0,4.94,-52.33,1539311400
Sable-sur-Sarthe,FR,2018-10-12,55.4,93,6.93,0,47.84,-0.33,1539313200
Ushtobe,KZ,2018-10-12,50.49,60,5.06,0,45.25,77.98,1539314656
College,US,2018-10-12,39.92,98,3.36,75,64.86,-147.8,1539313080
Mahajanga,MG,2018-10-12,75.2,64,2.24,20,-15.72,46.32,1539309600
Gayeri,BF,2018-10-12,73.71,86,4.38,8,12.65,0.49,1539314656
Saint-Francois,FR,2018-10-12,57.2,87,8.41,0,46.42,3.91,1539313200
Arco,IT,2018-10-12,60.8,87,1.12,75,45.92,10.89,1539312600
Ploemeur,FR,2018-10-12,60.8,93,17.22,0,47.73,-3.43,1539313200
Port-Gentil,GA,2018-10-12,77.36,100,6.17,80,-0.72,8.78,1539314657
Comodoro Rivadavia,AR,2018-10-12,53.6,34,9.17,0,-45.87,-67.48,1539309600
Chulman,RU,2018-10-12,37.17,69,3.38,92,56.84,124.9,1539314658
Nizwa,OM,2018-10-12,59.63,42,2.59,0,22.93,57.53,1539314658
Belmonte,PT,2018-10-12,50.63,94,3.94,92,40.36,-7.35,1539314658
Beira,ES,2018-10-12,64.4,72,11.41,68,43.2,-8.36,1539313200
Gorontalo,ID,2018-10-12,84.78,72,2.71,36,0.54,123.06,1539314659
Barsi,IN,2018-10-12,75.78,83,4.61,0,29.05,76.02,1539314659
Fuerte Olimpo,BR,2018-10-12,77.31,89,2.93,20,-21.04,-57.87,1539314659
Peniche,PT,2018-10-12,64.4,87,4.7,0,39.36,-9.38,1539313200
Nueva Loja,EC,2018-10-12,74.07,95,1.48,12,0.08,-76.88,1539314660
Reconquista,AR,2018-10-12,68.58,70,17.47,76,-29.14,-59.64,1539314660
Deputatskiy,RU,2018-10-12,18.0,90,3.49,44,69.3,139.9,1539314660
Ipixuna,BR,2018-10-12,78.8,78,9.17,0,-1.76,-48.8,1539309600
Soyaniquilpan,MX,2018-10-12,53.64,100,2.37,88,19.98,-99.5,1539314660
Ostersund,SE,2018-10-12,48.2,81,16.11,0,63.18,14.64,1539312600
Zaysan,KZ,2018-10-12,44.6,74,3.49,0,47.47,84.87,1539314661
Cabinda,AO,2018-10-12,75.78,100,6.96,88,-5.56,12.19,1539314661
Fukue,JP,2018-10-12,69.8,52,28.86,75,35.03,136.69,1539311400
Los Llanos de Aridane,ES,2018-10-12,71.6,60,6.93,0,28.66,-17.92,1539313200
Nuuk,GL,2018-10-12,23.0,73,13.87,0,64.17,-51.74,1539312600
San Juan Tecuaco,GT,2018-10-12,62.6,93,5.73,90,14.09,-90.27,1539313200
Florianopolis,BR,2018-10-12,68.0,68,6.93,75,-27.6,-48.55,1539313200
Westport,IE,2018-10-12,54.36,97,28.32,92,53.8,-9.52,1539314662
Wattegama,LK,2018-10-12,72.36,95,2.82,92,7.35,80.68,1539314662
Berezovyy,RU,2018-10-12,48.38,45,2.82,0,51.67,135.7,1539314663
Hobyo,SO,2018-10-12,76.68,87,17.25,0,5.35,48.53,1539314663
Jiwani,PK,2018-10-12,71.15,57,11.32,0,25.05,61.74,1539314663
Daru,SL,2018-10-12,69.84,97,2.93,36,7.99,-10.85,1539314663
Adrar,DZ,2018-10-12,69.8,37,5.82,0,27.87,-0.29,1539313200
Verkh-Usugli,RU,2018-10-12,50.81,47,3.6,8,52.7,115.17,1539314664
Tigil,RU,2018-10-12,48.42,65,13.0,80,57.8,158.67,1539314664
Tual,ID,2018-10-12,81.5,100,8.75,0,-5.67,132.75,1539314664
Oga,NG,2018-10-12,72.36,91,6.62,20,8.18,5.65,1539314665
Lashio,MM,2018-10-12,65.48,100,1.14,92,22.93,97.75,1539314665
Gilgit,PK,2018-10-12,27.23,52,0.13,0,35.92,74.31,1539314665
Mackay,CA,2018-10-12,42.8,93,3.36,90,53.65,-115.58,1539313200
Urucara,BR,2018-10-12,84.15,65,3.83,32,-2.54,-57.76,1539314665
Nouadhibou,MR,2018-10-12,73.4,78,19.46,20,20.93,-17.03,1539313200
Vilyuysk,RU,2018-10-12,35.78,99,3.6,92,63.75,121.63,1539314666
San Policarpo,PH,2018-10-12,81.99,99,6.96,92,12.18,125.51,1539314666
Kozhevnikovo,RU,2018-10-12,48.33,57,12.1,36,56.26,83.98,1539314666
Jumla,NP,2018-10-12,38.25,83,1.81,0,29.28,82.18,1539314667
Caldas Novas,BR,2018-10-12,69.03,93,0.13,80,-17.75,-48.62,1539314667
Pennathur,IN,2018-10-12,80.19,83,9.53,44,12.25,79.22,1539314667
Rabaul,PG,2018-10-12,84.33,98,3.71,24,-4.2,152.17,1539314667
Slave Lake,CA,2018-10-12,39.2,86,6.17,90,55.28,-114.77,1539313200
Matay,EG,2018-10-12,62.01,82,7.18,0,28.42,30.79,1539314667
Moshenskoye,RU,2018-10-12,40.14,99,6.96,76,58.52,34.59,1539314668
Tura,IN,2018-10-12,70.43,98,5.73,92,25.52,90.21,1539314668
Kloulklubed,PW,2018-10-12,89.6,66,6.93,75,7.04,134.26,1539312600
Tecate,US,2018-10-12,69.08,61,2.48,0,32.57,-116.63,1539313140
Weiser,US,2018-10-12,32.4,82,2.37,0,44.25,-116.97,1539314669
Saint-Philippe,CA,2018-10-12,50.72,100,5.82,90,45.36,-73.48,1539314040
Fort Nelson,CA,2018-10-12,30.2,86,3.36,75,58.81,-122.69,1539313200
Jackville,CI,2018-10-12,78.8,88,8.05,20,5.21,-4.42,1539313200
Port Blair,IN,2018-10-12,82.85,100,9.31,64,11.67,92.75,1539314670
Oruro,BO,2018-10-12,41.81,100,2.82,8,-17.97,-67.11,1539314635
Tiarei,PF,2018-10-12,82.4,69,10.29,75,-17.53,-149.33,1539313200
Luwuk,ID,2018-10-12,81.9,92,3.6,12,-0.95,122.79,1539314670
Tibirita,CO,2018-10-12,65.66,90,1.81,80,5.05,-73.5,1539314670
Yarega,RU,2018-10-12,35.37,74,10.54,64,63.43,53.58,1539314671
Tiksi,RU,2018-10-12,29.21,98,3.94,44,71.64,128.87,1539314671
Ibra,OM,2018-10-12,54.54,54,2.37,0,22.69,58.55,1539314671
Dimitrovgrad,RU,2018-10-12,37.4,73,13.42,68,54.22,49.6,1539309600
Kameyama,JP,2018-10-12,69.8,52,28.86,75,34.86,136.45,1539311400
North Bend,US,2018-10-12,55.04,79,5.82,0,43.41,-124.22,1539312960
Ayagoz,KZ,2018-10-12,44.78,55,6.85,8,47.96,80.43,1539314672
Khambhat,IN,2018-10-12,85.5,67,8.08,32,22.32,72.62,1539314672
Sabang,PH,2018-10-12,84.2,87,7.4,80,13.72,123.58,1539314672
Rundu,NA,2018-10-12,62.91,40,2.82,68,-17.91,19.77,1539314673
Valparaiso,US,2018-10-12,46.94,11,5.82,1,41.47,-87.06,1539314100
Santa Maria,BR,2018-10-12,62.6,77,14.99,75,-29.69,-53.81,1539309600
Sisimiut,GL,2018-10-12,2.21,100,1.7,0,66.94,-53.67,1539314674
Nelson Bay,AU,2018-10-12,64.4,59,19.46,75,-32.72,152.14,1539313200
Castlerea,IE,2018-10-12,53.46,94,37.6,92,53.77,-8.49,1539314675
Chapais,CA,2018-10-12,39.2,100,9.17,90,49.78,-74.86,1539313500
Bansko,MK,2018-10-12,49.28,80,2.37,20,41.39,22.75,1539314675
Marsh Harbour,BS,2018-10-12,82.58,100,12.44,56,26.54,-77.06,1539314675
Ajdabiya,LY,2018-10-12,63.05,76,8.97,0,30.75,20.22,1539314676
Kavaratti,IN,2018-10-12,83.79,99,10.09,80,10.57,72.64,1539314676
Narsaq,GL,2018-10-12,24.8,58,2.24,40,60.91,-46.05,1539312600
Darlowo,PL,2018-10-12,59.4,94,17.81,0,54.42,16.41,1539314676
Dongfeng,CN,2018-10-12,53.37,75,7.4,0,42.67,125.53,1539314676
Banjar,ID,2018-10-12,85.73,56,3.71,12,-7.37,108.54,1539314677
Tashtagol,RU,2018-10-12,38.66,81,3.38,0,52.76,87.85,1539314677
Teahupoo,PF,2018-10-12,82.4,69,10.29,75,-17.83,-149.27,1539313200
Umba,RU,2018-10-12,40.05,100,6.4,56,66.69,34.34,1539314677
Talnakh,RU,2018-10-12,30.78,90,21.27,88,69.49,88.39,1539314678
Altamont,CA,2018-10-12,23.0,79,6.93,20,49.4,-98.5,1539313200
Kahului,US,2018-10-12,82.04,69,14.99,40,20.89,-156.47,1539313560
Namatanai,PG,2018-10-12,84.87,98,7.74,24,-3.66,152.44,1539314678
Pasighat,IN,2018-10-12,68.13,79,0.69,92,28.06,95.33,1539314678
Zyryanovsk,KZ,2018-10-12,37.98,79,2.15,0,49.74,84.27,1539314679
Zaozerne,UA,2018-10-12,46.31,88,10.42,0,51.37,23.94,1539314679
Shubarshi,KZ,2018-10-12,36.95,86,12.88,32,48.59,57.19,1539314679
Faanui,PF,2018-10-12,79.83,100,15.35,36,-16.48,-151.75,1539314679
Samfya,ZM,2018-10-12,72.05,62,6.4,80,-11.37,29.56,1539314680
Hofn,IS,2018-10-12,46.76,97,14.12,32,64.25,-15.21,1539314680
Margate,AU,2018-10-12,59.0,58,8.05,40,-43.03,147.26,1539313200
Great Falls,US,2018-10-12,33.26,18,8.05,1,47.5,-111.29,1539312780
Seoul,KR,2018-10-12,59.72,35,5.82,0,37.57,126.98,1539313200
Amapa,HN,2018-10-12,80.6,88,4.7,40,15.09,-87.97,1539313200
Nago,IT,2018-10-12,60.8,87,1.12,75,45.88,10.89,1539312600
Laguna,MX,2018-10-12,75.33,66,2.15,92,27.52,-110.01,1539314681
Rincon,US,2018-10-12,78.98,79,9.17,1,32.3,-81.24,1539312960
Sibu,MY,2018-10-12,86.0,70,3.36,75,2.29,111.83,1539313200
Anaconda,US,2018-10-12,32.0,19,2.71,1,46.13,-112.94,1539312780
Kalmunai,LK,2018-10-12,79.02,93,8.63,68,7.42,81.82,1539314682
Kemin,KG,2018-10-12,36.86,74,2.71,0,42.79,75.7,1539314682
Guerrero Negro,MX,2018-10-12,67.86,92,6.73,92,27.97,-114.04,1539314683
Flin Flon,CA,2018-10-12,27.86,100,6.06,0,54.77,-101.88,1539314683
Beroroha,MG,2018-10-12,62.64,93,3.15,24,-21.68,45.17,1539314683
Garowe,SO,2018-10-12,64.08,84,2.82,12,8.41,48.48,1539314683
Katsuura,JP,2018-10-12,62.6,55,3.36,75,33.93,134.5,1539309600
Manakara,MG,2018-10-12,71.19,95,8.3,56,-22.14,48.01,1539314684
Dandong,CN,2018-10-12,56.07,68,2.71,0,40.12,124.37,1539314684
Cascais,PT,2018-10-12,64.4,93,6.93,20,38.7,-9.42,1539313200
Vila Velha,BR,2018-10-12,78.8,78,8.05,0,-3.71,-38.6,1539313200
Sao Felix do Xingu,BR,2018-10-12,74.43,97,2.15,12,-6.64,-51.99,1539314685
Sept-Iles,CA,2018-10-12,32.0,87,13.87,90,50.2,-66.38,1539313740
Alofi,NU,2018-10-12,80.6,83,13.87,75,-19.06,-169.92,1539313200
Yinchuan,CN,2018-10-12,55.58,32,4.61,0,38.48,106.21,1539314686
Dzilam Gonzalez,MX,2018-10-12,79.7,75,3.94,8,21.28,-88.93,1539314686
Yungay,PE,2018-10-12,44.1,56,0.92,32,-9.14,-77.74,1539314686
Dabat,ET,2018-10-12,47.79,88,1.81,0,12.98,37.77,1539314686
Porkhov,RU,2018-10-12,37.4,100,4.47,0,57.77,29.55,1539309600
Sijunjung,ID,2018-10-12,75.2,97,3.15,68,-0.69,100.95,1539314687
Camacupa,AO,2018-10-12,53.1,63,2.59,0,-12.02,17.48,1539314687
Batemans Bay,AU,2018-10-12,57.2,91,4.72,68,-35.71,150.18,1539314687
Luderitz,NA,2018-10-12,62.6,51,24.16,64,-26.65,15.16,1539309600
Baikunthpur,IN,2018-10-12,71.06,100,4.94,88,23.26,82.56,1539314688
Sambava,MG,2018-10-12,74.34,100,19.04,92,-14.27,50.17,1539314688
Baft,IR,2018-10-12,34.47,69,2.59,0,29.23,56.61,1539314688
Puerto Escondido,MX,2018-10-12,78.8,69,1.36,40,15.86,-97.07,1539312000
El Rodeo,AR,2018-10-12,55.4,71,12.75,75,-34.62,-58.73,1539309600
Praia da Vitoria,PT,2018-10-12,69.8,88,36.37,40,38.73,-27.07,1539313200
West Bay,GB,2018-10-12,60.8,77,21.92,75,50.71,-2.76,1539312600
Launceston,AU,2018-10-12,59.0,58,6.93,90,-41.43,147.14,1539313200
Waipawa,NZ,2018-10-12,47.66,93,23.29,92,-39.94,176.59,1539314690
Merritt,CA,2018-10-12,50.0,70,2.24,1,50.11,-120.79,1539313200
Szentgotthard,HU,2018-10-12,41.0,100,1.12,75,46.95,16.27,1539312600
Okha,RU,2018-10-12,48.87,78,9.42,64,53.59,142.95,1539314690
Puerto Baquerizo Moreno,EC,2018-10-12,71.6,73,6.93,20,-0.9,-89.6,1539309600
Bonthe,SL,2018-10-12,73.89,100,1.7,64,7.53,-12.5,1539314691
Kozhva,RU,2018-10-12,32.81,82,11.77,92,65.11,57.05,1539314691
Kibakwe,TZ,2018-10-12,58.14,92,2.59,64,-6.71,36.37,1539314691
Lubango,AO,2018-10-12,51.93,89,2.04,0,-14.92,13.49,1539314692
Saint-Leu,RE,2018-10-12,71.6,60,2.24,75,-21.15,55.28,1539311400
Terrace,CA,2018-10-12,50.0,87,25.28,75,54.52,-128.61,1539312480
Lukulu,ZM,2018-10-12,56.21,52,3.15,0,-14.38,23.24,1539314692
Itoman,JP,2018-10-12,68.0,82,13.87,90,26.12,127.67,1539313200
Tautira,PF,2018-10-12,82.4,69,10.29,75,-17.73,-149.15,1539313200
Lavrentiya,RU,2018-10-12,42.93,100,19.15,88,65.58,-170.99,1539314693
Gobindpur,IN,2018-10-12,71.06,100,6.96,92,23.81,86.6,1539314694
Peleduy,RU,2018-10-12,36.9,99,5.5,92,59.63,112.75,1539314694
Zambezi,ZM,2018-10-12,58.46,56,4.94,0,-13.55,23.12,1539314694
Presidencia Roque Saenz Pena,AR,2018-10-12,69.71,93,10.2,92,-26.79,-60.44,1539314694
Ramshir,IR,2018-10-12,77.0,57,6.93,0,30.89,49.41,1539309600
Henties Bay,NA,2018-10-12,57.42,100,6.62,92,-22.12,14.28,1539314695
Aldan,RU,2018-10-12,37.08,100,3.71,92,58.61,125.39,1539314695
Kyshtovka,RU,2018-10-12,46.13,71,12.1,92,56.56,76.62,1539314696
De Aar,ZA,2018-10-12,56.61,32,7.18,68,-30.65,24.01,1539314696
Hervey Bay,AU,2018-10-12,69.75,100,12.44,92,-25.3,152.85,1539314696
Elizabeth City,US,2018-10-12,73.94,88,21.92,90,36.3,-76.22,1539313440
Port Macquarie,AU,2018-10-12,59.0,87,10.29,90,-31.43,152.91,1539313200
Havre-Saint-Pierre,CA,2018-10-12,33.8,74,8.05,90,50.23,-63.6,1539313200
Killam,CA,2018-10-12,33.26,87,10.65,88,52.79,-111.86,1539314697
Monte Patria,CL,2018-10-12,39.51,99,1.36,36,-30.69,-70.96,1539314697
Bacolod,PH,2018-10-12,86.0,69,9.08,56,10.68,122.95,1539314697
Lermontovka,RU,2018-10-12,49.14,72,3.94,0,47.15,134.34,1539314697
Zhezkazgan,KZ,2018-10-12,46.4,45,17.9,90,47.8,67.71,1539311400
Registro,BR,2018-10-12,63.05,98,8.19,92,-24.5,-47.84,1539314698
Palauig,PH,2018-10-12,84.69,85,1.03,0,15.44,119.9,1539314698
Guarapari,BR,2018-10-12,77.0,83,9.17,75,-20.67,-40.5,1539309600
Sarandi,BR,2018-10-12,63.45,79,18.48,12,-27.94,-52.92,1539314698
Buraydah,SA,2018-10-12,73.4,38,11.43,0,26.33,43.97,1539309600
Pacific Grove,US,2018-10-12,60.98,75,3.6,1,36.62,-121.92,1539312900
Batagay-Alyta,RU,2018-10-12,21.83,90,3.71,88,67.8,130.41,1539314699
Pangnirtung,CA,2018-10-12,14.31,100,11.65,0,66.15,-65.72,1539314699
Atchison,US,2018-10-12,50.0,82,3.04,90,39.56,-95.12,1539312780
Taoudenni,ML,2018-10-12,77.18,33,9.86,0,22.68,-3.98,1539314700
Tezu,IN,2018-10-12,64.35,81,0.58,92,27.93,96.16,1539314700
Vikindu,TZ,2018-10-12,71.28,98,2.93,92,-6.98,39.3,1539314700
Xai-Xai,MZ,2018-10-12,72.36,93,11.99,0,-25.04,33.64,1539314701
Bayaguana,DO,2018-10-12,77.0,88,6.93,75,18.75,-69.64,1539313200
Termini Imerese,IT,2018-10-12,71.6,73,1.12,0,37.98,13.7,1539312600
Cherskiy,RU,2018-10-12,26.64,96,2.04,48,68.75,161.3,1539314701
Las Cruces,CL,2018-10-12,48.2,93,3.36,20,-33.5,-71.62,1539313200
Poum,MK,2018-10-12,36.18,87,2.59,0,41.28,20.71,1539314702
Sesimbra,PT,2018-10-12,64.4,100,3.36,0,38.45,-9.1,1539313200
Nantucket,US,2018-10-12,69.8,100,12.75,90,41.28,-70.1,1539314400
New Ross,IE,2018-10-12,58.05,95,44.31,92,52.4,-6.94,1539314703
Sitka,US,2018-10-12,47.66,83,10.65,92,37.17,-99.65,1539314703
Jacareacanga,BR,2018-10-12,76.23,96,1.92,56,-6.22,-57.76,1539314703
Megion,RU,2018-10-12,42.8,93,11.18,75,61.04,76.11,1539311400
Stuttgart,DE,2018-10-12,53.6,93,2.24,0,48.78,9.18,1539312600
Tabuk,PH,2018-10-12,79.56,71,2.71,8,17.41,121.44,1539314704
Ust-Kut,RU,2018-10-12,36.23,73,4.83,64,56.78,105.75,1539314704
Road Town,VG,2018-10-12,80.06,84,4.7,1,18.42,-64.62,1539312780
Griffith,AU,2018-10-12,68.4,71,13.33,8,-34.29,146.06,1539314558
Waingapu,ID,2018-10-12,89.96,51,7.18,0,-9.65,120.26,1539314705
Mareeba,AU,2018-10-12,84.2,58,11.41,0,-16.99,145.42,1539313200
Xining,CN,2018-10-12,44.55,57,3.38,8,36.62,101.77,1539314705
Sagaing,MM,2018-10-12,77.0,88,2.24,90,21.88,95.98,1539311400
Nola,CF,2018-10-12,68.18,100,0.58,92,3.52,16.05,1539314706
Namwala,ZM,2018-10-12,60.03,64,6.17,0,-15.75,26.45,1539314706
Bathsheba,BB,2018-10-12,82.4,78,9.17,40,13.22,-59.52,1539313200
Finspang,SE,2018-10-12,51.8,100,4.7,0,58.71,15.77,1539312600
Nampula,MZ,2018-10-12,71.6,83,8.05,40,-15.12,39.26,1539309600
Bingol,TR,2018-10-12,39.51,85,2.48,0,38.88,40.49,1539314707
Baykit,RU,2018-10-12,29.21,80,5.95,56,61.68,96.39,1539314708
Wuwei,CN,2018-10-12,49.1,53,3.49,0,37.93,102.64,1539314571
Blue Springs,US,2018-10-12,50.0,83,4.05,90,39.02,-94.28,1539312900
